City,Lat,Lng,Max Temp,Humidity,Cloudiness,Wind Speed,Country,Date
yellowknife,62.46,-114.35,21.0,85.0,20.0,6.93,CA,1603247361.0
saint-ambroise,48.55,-71.33,33.01,100.0,40.0,3.36,CA,1603247361.0
ushuaia,-54.8,-68.3,41.0,75.0,40.0,4.85,AR,1603247160.0
hobart,-42.88,147.33,68.0,51.0,40.0,5.82,AU,1603247361.0
terrace,54.52,-128.6,39.2,93.0,90.0,2.24,CA,1603247362.0
punta arenas,-53.15,-70.92,41.0,75.0,75.0,5.82,CL,1603247276.0
codrington,-38.27,141.97,58.26,70.0,4.0,7.47,AU,1603247362.0
sibu,2.3,111.82,82.4,78.0,20.0,4.7,MY,1603247362.0
toora-khem,52.47,96.11,28.67,89.0,99.0,3.02,RU,1603247362.0
kuala terengganu,5.33,103.14,86.0,74.0,20.0,3.36,MY,1603247363.0
kiama,-34.68,150.87,75.0,65.0,53.0,7.0,AU,1603247363.0
qaanaaq,77.48,-69.36,20.41,82.0,37.0,6.17,GL,1603247363.0
tsihombe,,,,,,,,
mareeba,-17.0,145.43,88.0,55.0,0.0,10.29,AU,1603247364.0
klaksvik,62.23,-6.59,39.2,72.0,39.0,5.82,FO,1603247364.0
albany,42.6,-73.97,55.0,85.0,100.0,4.03,US,1603247364.0
udachnyy,66.42,112.4,3.2,91.0,90.0,2.24,RU,1603247364.0
victoria,22.29,114.16,77.0,67.0,55.0,3.0,HK,1603247246.0
fairbanks,64.84,-147.72,23.0,85.0,90.0,0.96,US,1603247365.0
saint-philippe,-21.36,55.77,70.0,60.0,15.0,3.36,RE,1603247365.0
kodiak,57.79,-152.41,46.4,45.0,1.0,10.29,US,1603247365.0
dikson,73.51,80.55,24.03,97.0,94.0,5.01,RU,1603247365.0
okhotsk,59.38,143.3,27.79,78.0,97.0,7.67,RU,1603247366.0
bluff,-46.6,168.33,57.0,60.0,50.0,11.99,NZ,1603247366.0
naze,28.37,129.48,80.6,74.0,75.0,16.11,JP,1603247366.0
busselton,-33.65,115.33,71.01,39.0,0.0,6.29,AU,1603247366.0
banjar,-8.19,114.97,84.2,79.0,40.0,12.75,ID,1603247367.0
georgetown,5.41,100.34,82.0,88.0,20.0,4.7,MY,1603247367.0
castro,-24.79,-50.01,62.94,89.0,58.0,5.91,BR,1603247367.0
bredasdorp,-34.53,20.04,41.0,93.0,0.0,2.24,ZA,1603247367.0
jamestown,42.1,-79.24,48.99,100.0,90.0,5.82,US,1603247368.0
rikitea,-23.12,-134.97,74.08,75.0,24.0,9.31,PF,1603247368.0
lasa,46.62,10.7,48.99,100.0,5.0,5.82,IT,1603247368.0
waipawa,-41.41,175.52,63.0,67.0,45.0,21.92,NZ,1603247368.0
plettenberg bay,-34.05,23.37,53.06,79.0,0.0,2.13,ZA,1603247207.0
cape town,-33.93,18.42,51.01,81.0,0.0,3.36,ZA,1603247369.0
saskylakh,71.92,114.08,19.78,97.0,91.0,8.52,RU,1603247369.0
mataura,-46.19,168.86,57.0,60.0,17.0,11.99,NZ,1603247369.0
serov,59.6,60.58,29.05,98.0,97.0,4.32,RU,1603247369.0
kaitangata,-46.28,169.85,56.82,47.0,57.0,2.66,NZ,1603247370.0
port elizabeth,-33.92,25.57,50.0,87.0,7.0,2.24,ZA,1603247231.0
kavieng,-2.57,150.8,81.91,77.0,98.0,7.4,PG,1603247370.0
sitka,57.05,-135.33,42.8,75.0,75.0,3.53,US,1603247370.0
bambous virieux,-20.34,57.76,75.0,83.0,40.0,10.29,MU,1603247370.0
itarema,-2.92,-39.92,79.03,77.0,0.0,16.42,BR,1603247371.0
port alfred,-33.59,26.89,55.51,76.0,0.0,7.81,ZA,1603247371.0
bethel,41.37,-73.41,60.01,96.0,54.0,0.58,US,1603247371.0
avera,33.19,-82.53,68.0,94.0,1.0,4.7,US,1603247371.0
pasighat,28.07,95.33,75.81,79.0,15.0,1.39,IN,1603247372.0
umzimvubu,,,,,,,,
atuona,-9.8,-139.03,77.97,75.0,79.0,15.12,PF,1603247372.0
kapaa,22.08,-159.32,82.0,83.0,90.0,9.17,US,1603247372.0
cherskiy,68.75,161.3,23.02,97.0,97.0,4.41,RU,1603247373.0
vaini,-21.2,-175.2,75.2,69.0,75.0,6.93,TO,1603247373.0
nantucket,41.28,-70.1,64.0,93.0,90.0,4.7,US,1603247373.0
college,64.86,-147.8,23.0,79.0,90.0,1.01,US,1603247373.0
nikolskoye,59.7,30.79,30.99,92.0,90.0,3.44,RU,1603247373.0
hermanus,-34.42,19.23,51.01,85.0,0.0,3.0,ZA,1603247208.0
kirakira,-10.45,161.92,85.1,62.0,63.0,7.85,SB,1603247374.0
flinders,-34.58,150.86,75.0,65.0,51.0,7.0,AU,1603247374.0
abbeville,50.1,1.83,55.99,68.0,100.0,15.03,FR,1603247286.0
amderma,,,,,,,,
esperance,-33.87,121.9,60.8,93.0,90.0,13.87,AU,1603247375.0
ribeira grande,38.52,-28.7,63.55,68.0,78.0,25.43,PT,1603247375.0
butaritari,3.07,172.79,82.38,73.0,46.0,10.36,KI,1603247375.0
chokurdakh,70.63,147.92,9.68,96.0,70.0,4.83,RU,1603247375.0
xuanzhou,30.95,118.76,59.54,94.0,100.0,5.91,CN,1603247376.0
thompson,55.74,-97.86,24.8,85.0,90.0,2.24,CA,1603247376.0
great falls,47.5,-111.3,30.2,86.0,90.0,3.4,US,1603247376.0
dalinghe,,,,,,,,
takoradi,4.88,-1.76,76.05,91.0,100.0,8.08,GH,1603247377.0
bathsheba,13.22,-59.52,82.4,78.0,40.0,8.05,BB,1603247377.0
constitucion,-35.33,-72.42,51.31,78.0,24.0,14.25,CL,1603247377.0
teya,60.38,92.63,29.84,96.0,100.0,5.28,RU,1603247377.0
saint george,37.1,-113.58,75.2,11.0,1.0,4.7,US,1603247141.0
drumheller,51.46,-112.71,24.01,48.0,65.0,4.09,CA,1603247378.0
taolanaro,,,,,,,,
odessa,46.48,30.73,48.2,70.0,0.0,4.5,UA,1603247114.0
avarua,-21.21,-159.78,75.2,88.0,100.0,8.05,CK,1603247211.0
fazalpur,32.18,75.07,62.6,88.0,0.0,4.41,PK,1603247379.0
suleja,9.18,7.18,71.6,94.0,19.0,3.36,NG,1603247379.0
norman wells,65.28,-126.83,23.0,85.0,90.0,16.11,CA,1603247379.0
komsomolskiy,40.43,71.72,51.8,36.0,0.0,9.17,UZ,1603247379.0
grand gaube,-20.01,57.66,75.0,71.0,0.0,5.01,MU,1603247379.0
nhulunbuy,-12.23,136.77,89.6,59.0,40.0,13.87,AU,1603247380.0
abu kamal,34.45,40.92,69.51,37.0,0.0,7.45,SY,1603247380.0
torbay,47.67,-52.73,59.0,93.0,75.0,19.46,CA,1603247380.0
dharchula,29.85,80.53,62.91,33.0,0.0,3.24,IN,1603247380.0
husavik,66.04,-17.34,23.0,92.0,63.0,3.36,IS,1603247381.0
hualmay,-11.1,-77.61,63.36,80.0,47.0,8.3,PE,1603247381.0
fallon,39.47,-118.78,62.6,23.0,20.0,6.93,US,1603247381.0
znamenskoye,57.13,73.83,42.96,80.0,100.0,5.84,RU,1603247381.0
agadir,30.42,-9.6,69.8,73.0,20.0,2.13,MA,1603247382.0
beringovskiy,63.05,179.32,41.52,85.0,55.0,11.65,RU,1603247382.0
mayya,61.73,130.28,21.2,92.0,75.0,6.71,RU,1603247382.0
yumen,40.28,97.2,54.63,32.0,0.0,9.13,CN,1603247382.0
kharan,28.58,65.42,56.66,29.0,0.0,6.02,PK,1603247382.0
qianguo,45.12,124.86,54.21,40.0,87.0,20.6,CN,1603247383.0
rocha,-34.48,-54.33,54.72,66.0,100.0,11.77,UY,1603247383.0
puerto maldonado,-12.6,-69.18,72.79,92.0,12.0,0.96,PE,1603247383.0
general roca,-39.03,-67.58,68.0,30.0,11.0,16.11,AR,1603247383.0
san quintin,30.48,-115.95,66.63,89.0,1.0,12.06,MX,1603247384.0
piacabucu,-10.41,-36.43,74.75,82.0,0.0,8.39,BR,1603247384.0
maiduguri,11.85,13.16,76.73,28.0,0.0,0.81,NG,1603247315.0
oranjemund,-28.55,16.43,57.22,68.0,0.0,13.24,NA,1603247384.0
cravo norte,6.3,-70.2,80.78,75.0,12.0,3.33,CO,1603247385.0
padang,-0.95,100.35,85.33,60.0,91.0,3.2,ID,1603247385.0
rawson,-43.3,-65.1,50.92,59.0,0.0,17.74,AR,1603247313.0
cristalina,-16.77,-47.61,61.14,100.0,91.0,3.85,BR,1603247385.0
bengkulu,-3.8,102.27,84.15,64.0,35.0,1.97,ID,1603247385.0
sayaxche,16.52,-90.17,73.0,94.0,31.0,3.15,GT,1603247386.0
upernavik,72.79,-56.15,32.74,92.0,100.0,2.86,GL,1603247386.0
filadelfia,39.95,-75.16,64.99,93.0,40.0,3.36,US,1603247221.0
barrow,71.29,-156.79,28.4,86.0,90.0,12.75,US,1603247386.0
lompoc,34.64,-120.46,57.2,93.0,90.0,8.05,US,1603247387.0
yulara,-25.24,130.99,93.2,17.0,0.0,3.36,AU,1603247387.0
charcas,23.13,-101.12,63.81,59.0,2.0,9.22,MX,1603247387.0
barentsburg,,,,,,,,
hilo,19.73,-155.09,82.4,58.0,90.0,8.05,US,1603247387.0
ruteng,-8.61,120.47,77.76,59.0,12.0,0.16,ID,1603247388.0
saint-pierre,-21.34,55.48,70.0,60.0,1.0,3.36,RE,1603247388.0
balakhninskiy,58.01,114.28,22.86,93.0,100.0,6.6,RU,1603247388.0
lebu,-37.62,-73.65,49.06,78.0,0.0,17.52,CL,1603247388.0
omsukchan,62.53,155.8,17.91,91.0,68.0,1.97,RU,1603247389.0
shuangyang,43.52,125.67,48.2,81.0,75.0,11.18,CN,1603247389.0
puerto ayora,-0.74,-90.35,69.01,92.0,94.0,8.01,EC,1603247389.0
cockburn town,21.46,-71.14,81.73,79.0,89.0,14.92,TC,1603247211.0
hofn,64.25,-15.21,35.89,74.0,38.0,6.85,IS,1603247390.0
yeppoon,-23.13,150.73,84.2,48.0,75.0,9.17,AU,1603247390.0
teguise,29.06,-13.56,73.4,73.0,99.0,1.12,ES,1603247390.0
te anau,-45.42,167.72,54.68,49.0,8.0,6.53,NZ,1603247390.0
fortuna,40.6,-124.16,57.99,82.0,1.0,11.41,US,1603247390.0
kant,27.8,79.8,72.34,50.0,0.0,3.22,IN,1603247391.0
beni,0.5,29.47,60.73,99.0,98.0,1.68,CD,1603247391.0
pitimbu,-7.47,-34.81,75.2,94.0,75.0,11.41,BR,1603247391.0
mahebourg,-20.41,57.7,73.4,83.0,40.0,10.29,MU,1603247391.0
lata,40.16,-8.33,60.01,94.0,17.0,1.01,PT,1603247392.0
palabuhanratu,,,,,,,,
talnakh,69.49,88.4,8.6,84.0,63.0,2.24,RU,1603247392.0
conde,-7.26,-34.91,75.2,94.0,75.0,11.41,BR,1603247392.0
aklavik,68.22,-135.01,23.0,92.0,90.0,8.05,CA,1603247393.0
tabuk,17.42,121.44,80.47,83.0,95.0,9.35,PH,1603247393.0
ozinki,51.18,49.68,37.98,74.0,0.0,10.69,RU,1603247393.0
chernyshevskiy,63.01,112.47,16.52,95.0,99.0,6.51,RU,1603247393.0
chicama,-7.84,-79.15,63.59,80.0,13.0,5.64,PE,1603247393.0
sao filipe,14.9,-24.5,82.67,68.0,55.0,3.33,CV,1603247394.0
pangnirtung,66.15,-65.71,24.57,94.0,100.0,3.53,CA,1603247394.0
pevek,69.7,170.31,31.03,95.0,84.0,16.37,RU,1603247394.0
charleston,32.78,-79.93,73.99,94.0,100.0,4.7,US,1603247228.0
carnarvon,-24.87,113.63,73.4,56.0,40.0,19.46,AU,1603247395.0
myitkyina,25.38,97.4,74.98,89.0,77.0,2.39,MM,1603247395.0
mar del plata,-38.0,-57.56,52.0,87.0,0.0,5.82,AR,1603247171.0
pacific grove,36.62,-121.92,62.01,87.0,1.0,3.36,US,1603247395.0
hasaki,35.73,140.83,70.0,49.0,40.0,12.75,JP,1603247395.0
pelaya,8.69,-73.66,75.97,88.0,65.0,2.37,CO,1603247396.0
roald,62.58,6.13,42.8,93.0,100.0,13.87,NO,1603247396.0
pirovskoye,57.63,92.27,34.63,96.0,100.0,5.19,RU,1603247396.0
belushya guba,,,,,,,,
chapais,49.78,-74.85,32.0,99.0,90.0,2.24,CA,1603247397.0
bambanglipuro,-7.95,110.28,84.6,71.0,10.0,3.36,ID,1603247397.0
lethem,3.38,-59.8,83.16,57.0,91.0,5.68,GY,1603247397.0
provideniya,64.38,-173.3,44.6,87.0,90.0,6.71,RU,1603247397.0
genhe,50.78,121.52,33.19,93.0,100.0,6.87,CN,1603247228.0
ondjiva,-17.07,15.73,66.34,27.0,0.0,5.08,AO,1603247398.0
nabire,-3.37,135.48,77.54,89.0,100.0,1.39,ID,1603247398.0
laguna,38.42,-121.42,80.01,40.0,1.0,1.79,US,1603247398.0
mount gambier,-37.83,140.77,62.6,59.0,90.0,10.29,AU,1603247398.0
miyako,39.64,141.95,61.43,54.0,0.0,6.98,JP,1603247399.0
lavrentiya,65.58,-171.0,38.32,95.0,97.0,7.14,RU,1603247399.0
kerman,30.28,57.08,33.8,19.0,0.0,4.7,IR,1603247318.0
manitouwadge,49.12,-85.84,30.54,91.0,100.0,3.76,CA,1603247399.0
del rio,29.36,-100.9,84.2,48.0,1.0,9.17,US,1603247400.0
sainte-marie,-20.9,55.55,71.6,60.0,5.0,12.75,RE,1603247401.0
necochea,-38.55,-58.74,42.01,92.0,0.0,7.16,AR,1603247401.0
tooele,40.53,-112.3,61.0,42.0,1.0,6.93,US,1603247402.0
loreto,22.27,-101.97,63.07,56.0,0.0,13.78,MX,1603247403.0
hunza,,,,,,,,
mys shmidta,,,,,,,,
comodoro rivadavia,-45.87,-67.5,46.4,70.0,95.0,5.82,AR,1603247209.0
roccastrada,43.01,11.17,53.01,87.0,37.0,6.93,IT,1603247412.0
brigantine,39.41,-74.36,62.6,100.0,90.0,3.36,US,1603247413.0
bulgan,48.81,103.53,32.05,80.0,0.0,4.27,MN,1603247414.0
evensk,61.95,159.23,35.13,85.0,97.0,3.91,RU,1603247414.0
grootfontein,-19.57,18.12,64.42,26.0,13.0,9.6,NA,1603247415.0
fort nelson,58.81,-122.7,17.6,72.0,20.0,4.7,CA,1603247415.0
north battleford,52.78,-108.28,24.8,68.0,90.0,8.05,CA,1603247215.0
la ronge,55.1,-105.28,24.8,73.0,90.0,4.7,CA,1603247416.0
vila velha,-20.33,-40.29,69.8,94.0,75.0,5.82,BR,1603247354.0
matara,5.95,80.54,82.27,76.0,11.0,12.12,LK,1603247417.0
tasiilaq,65.61,-37.64,32.0,97.0,100.0,18.34,GL,1603247417.0
saleaula,,,,,,,,
khatanga,71.97,102.5,6.76,95.0,81.0,8.28,RU,1603247417.0
macklin,52.33,-109.93,22.64,86.0,5.0,2.39,CA,1603247418.0
lodwar,3.12,35.6,85.37,42.0,100.0,20.69,KE,1603247418.0
kovdor,67.57,30.48,29.5,96.0,100.0,2.28,RU,1603247418.0
tiksi,71.69,128.87,8.31,92.0,77.0,8.7,RU,1603247419.0
mrirt,,,,,,,,
ormara,25.21,64.64,78.58,23.0,0.0,11.63,PK,1603247419.0
vestmannaeyjar,63.44,-20.27,38.28,72.0,100.0,4.68,IS,1603247420.0
kloulklubed,7.04,134.26,82.4,83.0,90.0,4.7,PW,1603247420.0
kargasok,59.06,80.86,42.03,91.0,100.0,12.12,RU,1603247420.0
lokosovo,61.13,74.82,33.21,97.0,100.0,10.13,RU,1603247421.0
ostrovnoy,68.05,39.51,36.27,82.0,100.0,12.93,RU,1603247421.0
crab hill,,,,,,,,
samalaeulu,,,,,,,,
seinajoki,62.79,22.83,30.99,92.0,90.0,9.17,FI,1603247422.0
grand river south east,,,,,,,,
sistranda,63.73,8.83,37.4,69.0,75.0,8.05,NO,1603247422.0
hurghada,27.26,33.81,77.0,44.0,0.0,5.82,EG,1603247261.0
coihaique,-45.58,-72.07,42.8,75.0,0.0,3.36,CL,1603247423.0
burica,,,,,,,,
ramanuj ganj,23.8,83.7,78.03,65.0,0.0,0.76,IN,1603247424.0
kedrovyy,56.17,91.82,41.0,75.0,75.0,4.47,RU,1603247424.0
talaya,61.38,152.75,20.57,84.0,0.0,1.05,RU,1603247424.0
nizhneyansk,,,,,,,,
owensboro,37.77,-87.11,64.0,100.0,90.0,3.36,US,1603247425.0
flagstaff,35.2,-111.65,55.0,17.0,1.0,2.77,US,1603247426.0
mackay,-21.15,149.2,84.2,54.0,40.0,14.99,AU,1603247426.0
lorengau,-2.02,147.27,84.67,67.0,96.0,2.86,PG,1603247426.0
quatre cocos,-20.21,57.76,75.0,83.0,40.0,10.29,MU,1603247427.0
luderitz,-26.65,15.16,61.88,45.0,0.0,14.0,NA,1603247427.0
hambantota,6.12,81.12,78.8,100.0,40.0,8.05,LK,1603247427.0
sooke,48.37,-123.73,52.0,80.0,51.0,3.0,CA,1603247428.0
nanortalik,60.14,-45.24,35.13,91.0,100.0,18.1,GL,1603247428.0
omboue,-1.57,9.26,76.53,88.0,100.0,6.35,GA,1603247428.0
tynda,55.17,124.72,28.96,92.0,100.0,9.95,RU,1603247428.0
bandundu,-3.32,17.37,71.56,97.0,100.0,5.7,CD,1603247429.0
balkhash,46.84,74.98,39.2,27.0,0.0,13.42,KZ,1603247429.0
honiara,-9.43,159.95,87.8,70.0,20.0,9.17,SB,1603247429.0
mezhdurechensk,53.69,88.06,40.46,73.0,94.0,2.91,RU,1603247430.0
saint-joseph,-21.37,55.62,70.0,60.0,5.0,3.36,RE,1603247407.0
korla,41.76,86.15,54.84,36.0,0.0,6.2,CN,1603247430.0
kununurra,-15.77,128.73,96.8,41.0,10.0,8.05,AU,1603247430.0
mahon,39.89,4.27,68.0,88.0,95.0,16.11,ES,1603247431.0
stabat,3.76,98.45,80.6,88.0,40.0,3.36,ID,1603247431.0
touros,-5.2,-35.46,73.4,88.0,40.0,3.36,BR,1603247431.0
ginir,7.13,40.7,57.69,72.0,78.0,3.18,ET,1603247432.0
severo-kurilsk,50.68,156.12,42.48,65.0,62.0,30.38,RU,1603247432.0
siauliai,55.93,23.32,42.8,93.0,100.0,11.41,LT,1603247206.0
burnie,-41.07,145.92,59.0,63.0,75.0,11.01,AU,1603247433.0
juegang,32.32,121.19,60.94,79.0,100.0,3.94,CN,1603247433.0
madinat sittah uktubar,29.82,31.05,73.4,94.0,40.0,10.29,EG,1603247433.0
jumla,29.27,82.18,61.23,30.0,0.0,0.78,NP,1603247433.0
port augusta,-32.5,137.77,82.0,43.0,0.0,6.93,AU,1603247434.0
hithadhoo,-0.6,73.08,82.15,80.0,46.0,13.4,MV,1603247434.0
kjollefjord,70.95,27.35,34.99,85.0,82.0,2.3,NO,1603247434.0
solsvik,,,,,,,,
west lafayette,40.43,-86.91,55.4,93.0,90.0,4.7,US,1603247435.0
awjilah,29.11,21.29,62.87,72.0,0.0,10.67,LY,1603247435.0
mehamn,71.04,27.85,35.74,83.0,92.0,2.04,NO,1603247156.0
kamenskoye,,,,,,,,
jizan,17.33,42.67,80.6,74.0,0.0,4.7,SA,1603247436.0
ahuimanu,21.44,-157.84,82.4,100.0,90.0,9.17,US,1603247436.0
chkalovsk,56.76,43.24,33.8,91.0,75.0,8.95,RU,1603247436.0
vysokogornyy,50.12,139.15,47.28,52.0,100.0,4.07,RU,1603247437.0
arraial do cabo,-22.97,-42.03,72.21,86.0,0.0,19.66,BR,1603247437.0
consett,54.85,-1.83,55.0,92.0,83.0,9.78,GB,1603247437.0
kysyl-syr,63.9,122.76,22.66,95.0,94.0,3.09,RU,1603247437.0
kaeo,-35.1,173.78,63.54,69.0,97.0,7.27,NZ,1603247438.0
kavaratti,10.57,72.64,82.04,70.0,84.0,8.14,IN,1603247438.0
gizo,-8.1,156.84,83.34,74.0,94.0,13.8,SB,1603247438.0
namibe,-15.2,12.15,68.29,84.0,100.0,8.28,AO,1603247438.0
nuuk,64.18,-51.72,32.0,88.0,100.0,10.29,GL,1603247439.0
akyab,20.15,92.9,82.2,80.0,67.0,10.98,MM,1603247439.0
dhidhdhoo,6.88,73.1,82.13,77.0,53.0,11.99,MV,1603247439.0
lundamo,63.13,10.3,37.0,93.0,100.0,0.78,NO,1603247440.0
tuktoyaktuk,69.45,-133.04,23.0,92.0,90.0,17.22,CA,1603247440.0
porbandar,21.64,69.61,84.25,73.0,0.0,5.68,IN,1603247440.0
broken hill,-31.95,141.43,77.0,20.0,0.0,8.05,AU,1603247441.0
buraydah,26.33,43.98,60.8,38.0,0.0,3.36,SA,1603247441.0
saldanha,-33.01,17.94,42.8,81.0,0.0,4.7,ZA,1603247441.0
pathein,16.78,94.73,77.88,92.0,100.0,14.7,MM,1603247441.0
port blair,11.67,92.75,83.46,78.0,48.0,15.23,IN,1603247442.0
bargal,,,,,,,,
marcona,,,,,,,,
faanui,-16.48,-151.75,79.07,80.0,11.0,13.96,PF,1603247442.0
tabiauea,,,,,,,,
semnan,35.57,53.4,53.17,39.0,0.0,1.5,IR,1603247417.0
mayo,38.89,-76.51,62.01,94.0,1.0,3.6,US,1603247443.0
nyagan,62.14,65.39,28.53,98.0,39.0,6.62,RU,1603247432.0
puerto madryn,-42.77,-65.04,52.68,52.0,1.0,19.15,AR,1603247399.0
san patricio,28.02,-97.52,79.0,83.0,20.0,10.29,US,1603247444.0
huntington,38.42,-82.45,62.6,93.0,1.0,4.03,US,1603247444.0
sasovo,54.35,41.92,34.45,85.0,80.0,11.36,RU,1603247444.0
namatanai,-3.67,152.43,82.71,73.0,65.0,3.22,PG,1603247444.0
bonfim,3.08,-59.95,81.48,61.0,80.0,3.04,BR,1603247445.0
port lincoln,-34.73,135.87,63.7,65.0,85.0,9.44,AU,1603247445.0
manga,11.66,-1.07,79.5,51.0,1.0,6.11,BF,1603247445.0
kharp,66.8,65.81,20.07,96.0,100.0,4.74,RU,1603247445.0
krasnoselkup,65.7,82.47,26.38,98.0,100.0,10.63,RU,1603247446.0
katsuura,35.13,140.3,68.0,59.0,20.0,10.29,JP,1603247446.0
kommunar,59.62,30.39,30.99,92.0,90.0,3.65,RU,1603247232.0
yerbogachen,61.28,108.01,22.44,93.0,100.0,9.91,RU,1603247447.0
pyapon,16.28,95.68,75.54,97.0,100.0,7.76,MM,1603247447.0
sembe,1.65,14.58,70.3,93.0,75.0,2.68,CG,1603247447.0
paamiut,61.99,-49.67,34.09,90.0,97.0,3.65,GL,1603247447.0
ilebo,-4.32,20.58,71.6,95.0,100.0,1.14,CD,1603247170.0
illoqqortoormiut,,,,,,,,
lubango,-14.92,13.49,60.37,60.0,9.0,1.95,AO,1603247448.0
ozgon,,,,,,,,
grindavik,63.84,-22.43,35.6,93.0,75.0,4.7,IS,1603247449.0
tongliao,43.61,122.27,53.44,40.0,1.0,17.49,CN,1603247449.0
aykhal,66.0,111.5,3.2,91.0,90.0,2.24,RU,1603247449.0
ocampo,21.65,-101.5,57.09,70.0,2.0,11.54,MX,1603247449.0
sinnamary,5.38,-52.95,79.7,81.0,100.0,12.06,GF,1603247450.0
san cristobal,7.77,-72.22,77.0,88.0,40.0,3.36,VE,1603247450.0
ancud,-41.87,-73.82,45.0,75.0,0.0,9.17,CL,1603247450.0
lipari,38.47,14.95,59.0,67.0,0.0,7.0,IT,1603247451.0
haines junction,60.75,-137.51,27.27,84.0,100.0,3.65,CA,1603247451.0
tura,25.52,90.22,82.33,73.0,0.0,1.57,IN,1603247443.0
ruatoria,,,,,,,,
stoyba,,,,,,,,
alofi,-19.06,-169.92,77.0,78.0,90.0,19.46,NU,1603247452.0
souillac,-20.52,57.52,73.4,83.0,40.0,10.29,MU,1603247452.0
sept-iles,50.2,-66.38,39.0,78.0,20.0,10.29,CA,1603247452.0
dudinka,69.41,86.18,8.6,84.0,38.0,2.24,RU,1603247452.0
altay,47.87,88.12,41.72,53.0,0.0,3.27,CN,1603247254.0
port hardy,50.7,-127.42,46.4,87.0,75.0,2.24,CA,1603247453.0
harnosand,62.63,17.94,45.0,93.0,100.0,5.82,SE,1603247323.0
santarem,-2.44,-54.71,80.6,78.0,20.0,4.7,BR,1603247453.0
howard springs,-12.5,131.05,90.0,59.0,20.0,10.29,AU,1603247454.0
ponta do sol,32.67,-17.1,68.0,64.0,20.0,8.05,PT,1603247454.0
sorong,-0.88,131.25,83.8,72.0,34.0,6.82,ID,1603247454.0
muzhi,65.37,64.67,17.4,97.0,100.0,5.41,RU,1603247454.0
muli,2.92,73.57,82.45,79.0,71.0,13.76,MV,1603247455.0
calvinia,-31.47,19.78,51.82,39.0,0.0,5.82,ZA,1603247455.0
chagda,,,,,,,,
sambava,-14.27,50.17,74.3,81.0,100.0,15.93,MG,1603247456.0
tilichiki,60.47,166.1,40.33,88.0,100.0,17.22,RU,1603247456.0
san carlos de bariloche,-41.15,-71.31,55.0,45.0,58.0,8.05,AR,1603247456.0
morant bay,17.88,-76.41,78.8,83.0,20.0,8.05,JM,1603247456.0
hay river,60.82,-115.8,24.8,73.0,75.0,17.22,CA,1603247457.0
manavadar,21.5,70.13,83.7,72.0,0.0,3.6,IN,1603247457.0
hirara,24.8,125.28,80.6,88.0,75.0,18.34,JP,1603247457.0
babushkin,51.71,105.86,34.93,82.0,98.0,12.95,RU,1603247457.0
cayenne,4.93,-52.33,78.8,88.0,100.0,2.24,GF,1603247387.0
thornbury,52.23,-2.55,57.0,95.0,100.0,3.0,GB,1603247458.0
saint-louis,16.33,-15.0,87.55,18.0,48.0,7.07,SN,1603247458.0
karakol,42.49,78.39,49.48,33.0,0.0,0.36,KG,1603247458.0
temba,-25.38,28.26,64.99,76.0,33.0,5.01,ZA,1603247458.0
rorvik,64.86,11.24,38.98,74.0,99.0,21.56,NO,1603247459.0
phan thiet,10.93,108.1,83.48,73.0,100.0,1.77,VN,1603247459.0
clyde river,70.47,-68.59,26.6,79.0,75.0,10.29,CA,1603247459.0
airai,-8.93,125.41,81.3,33.0,18.0,5.48,TL,1603247459.0
mao,39.89,4.27,68.0,88.0,95.0,16.11,ES,1603247460.0
mergui,,,,,,,,
rock springs,41.59,-109.2,51.8,40.0,1.0,23.04,US,1603247460.0
vallenar,-28.57,-70.76,58.05,48.0,0.0,0.54,CL,1603247460.0
nome,64.5,-165.41,41.0,80.0,40.0,8.05,US,1603247461.0
arbuzynka,47.91,31.32,42.37,71.0,1.0,4.59,UA,1603247461.0
magdagachi,53.45,125.8,35.71,93.0,100.0,4.23,RU,1603247461.0
somerset,40.57,-74.55,64.0,100.0,90.0,0.74,US,1603247461.0
martapura,-3.42,114.85,87.8,62.0,20.0,2.24,ID,1603247462.0
kemijarvi,66.71,27.43,25.02,98.0,86.0,1.25,FI,1603247462.0
kirkuk,35.47,44.39,63.63,32.0,0.0,3.69,IQ,1603247462.0
pisco,-13.7,-76.22,64.0,82.0,3.0,12.75,PE,1603247462.0
vao,-22.67,167.48,73.47,83.0,99.0,13.22,NC,1603247463.0
viedma,-40.81,-63.0,48.58,68.0,74.0,9.82,AR,1603247345.0
meulaboh,4.14,96.13,85.3,63.0,84.0,4.32,ID,1603247463.0
namanga,-2.54,36.79,63.79,79.0,68.0,3.47,KE,1603247463.0
sao gabriel da cachoeira,-0.13,-67.09,77.18,77.0,31.0,0.02,BR,1603247464.0
dingle,11.0,122.67,84.27,80.0,62.0,15.77,PH,1603247464.0
qasigiannguit,68.82,-51.19,33.8,95.0,100.0,9.17,GL,1603247464.0
hobyo,5.35,48.53,79.36,85.0,6.0,13.04,SO,1603247465.0
miastko,54.0,16.98,46.99,89.0,100.0,4.0,PL,1603247465.0
chenghai,23.46,116.77,78.8,57.0,64.0,13.42,CN,1603247465.0
molina de segura,38.05,-1.21,64.0,89.0,100.0,1.01,ES,1603247465.0
ilulissat,69.22,-51.1,33.8,95.0,100.0,9.17,GL,1603247466.0
oranjestad,12.52,-70.03,75.2,94.0,20.0,4.7,AW,1603247466.0
kenai,60.55,-151.26,42.8,56.0,1.0,4.7,US,1603247444.0
botwood,49.15,-55.35,60.01,87.0,100.0,1.99,CA,1603247466.0
faya,18.39,42.45,55.4,25.0,0.0,6.93,SA,1603247467.0
kulhudhuffushi,6.62,73.07,82.11,78.0,62.0,12.01,MV,1603247467.0
doha,25.29,51.53,77.0,57.0,0.0,3.36,QA,1603247195.0
kisanga,-7.44,37.7,72.45,74.0,93.0,2.73,TZ,1603247467.0
kosino,58.41,51.28,32.49,96.0,100.0,9.46,RU,1603247468.0
sosua,19.77,-70.52,77.0,94.0,20.0,6.06,DO,1603247468.0
bubaque,11.28,-15.83,81.37,83.0,25.0,12.44,GW,1603247468.0
opuwo,-18.06,13.84,58.05,36.0,0.0,0.54,NA,1603247468.0
portland,45.52,-122.68,60.01,72.0,87.0,3.96,US,1603247469.0
iqaluit,63.75,-68.51,30.2,80.0,75.0,16.11,CA,1603247469.0
barcelos,41.54,-8.62,59.0,100.0,75.0,12.75,PT,1603247469.0
chuy,-33.7,-53.46,58.15,72.0,100.0,13.47,UY,1603247469.0
arman,59.7,150.17,31.73,79.0,0.0,2.28,RU,1603247470.0
biltine,14.53,20.92,79.18,17.0,1.0,10.29,TD,1603247470.0
longyearbyen,78.22,15.64,26.6,68.0,40.0,6.93,SJ,1603247470.0
teahupoo,-17.83,-149.27,84.2,70.0,20.0,13.87,PF,1603247470.0
shiraoi,42.55,141.35,64.0,51.0,0.0,8.05,JP,1603247471.0
east london,-33.02,27.91,57.49,66.0,0.0,5.5,ZA,1603247285.0
price,39.6,-110.81,64.4,23.0,1.0,10.29,US,1603247471.0
ust-ishim,57.69,71.17,41.13,91.0,81.0,5.41,RU,1603247471.0
lagdo,9.05,13.73,73.83,63.0,0.0,2.66,CM,1603247262.0
rafael lucio,19.58,-96.97,57.54,95.0,52.0,3.53,MX,1603247472.0
nyurba,63.28,118.33,20.91,94.0,65.0,5.35,RU,1603247472.0
sawakin,19.11,37.33,79.79,56.0,0.0,7.31,SD,1603247472.0
zhigansk,66.77,123.37,18.03,96.0,100.0,0.69,RU,1603247318.0
palmer,42.16,-72.33,61.0,100.0,75.0,4.7,US,1603247473.0
zhanaozen,43.3,52.8,46.6,64.0,99.0,3.15,KZ,1603247473.0
vila franca do campo,37.72,-25.43,59.0,72.0,40.0,11.41,PT,1603247473.0
nioro,13.35,-15.75,77.23,96.0,76.0,5.66,GM,1603247473.0
los alamos,35.89,-106.31,66.2,12.0,1.0,8.05,US,1603247474.0
seoul,37.57,126.98,62.6,59.0,90.0,3.65,KR,1603247400.0
lazaro cardenas,17.96,-102.2,79.95,87.0,28.0,3.15,MX,1603247474.0
umm lajj,25.02,37.27,80.35,34.0,0.0,3.62,SA,1603247474.0
sanming,26.25,117.62,71.24,68.0,96.0,4.81,CN,1603247474.0
mount isa,-20.73,139.5,98.6,13.0,0.0,8.05,AU,1603247443.0
bahia blanca,-38.72,-62.27,53.2,49.0,0.0,13.6,AR,1603247351.0
port hedland,-20.32,118.57,86.0,58.0,71.0,17.22,AU,1603247475.0
alice springs,-23.7,133.88,95.0,24.0,40.0,18.34,AU,1603247475.0
natal,-5.79,-35.21,73.4,88.0,40.0,3.36,BR,1603247476.0
kerema,-7.96,145.78,83.77,75.0,80.0,9.37,PG,1603247476.0
boromo,11.75,-2.93,79.48,58.0,25.0,5.59,BF,1603247476.0
arlit,18.74,7.39,84.42,13.0,0.0,6.44,NE,1603247476.0
shenjiamen,29.96,122.3,68.29,78.0,100.0,14.52,CN,1603247477.0
piripiri,-4.27,-41.78,70.39,92.0,0.0,1.86,BR,1603247477.0
claresholm,50.03,-113.59,35.6,55.0,2.0,18.34,CA,1603247477.0
simao,22.79,100.97,65.35,84.0,95.0,2.24,CN,1603247477.0
humaita,-7.51,-63.02,73.98,93.0,68.0,1.52,BR,1603247478.0
abu samrah,35.3,37.18,59.05,69.0,0.0,3.04,SY,1603247478.0
shadegan,30.65,48.66,60.8,48.0,0.0,7.29,IR,1603247478.0
imeni poliny osipenko,52.42,136.49,44.28,60.0,100.0,11.32,RU,1603247478.0
dobryatino,55.51,41.32,30.07,96.0,87.0,9.06,RU,1603247479.0
bow island,49.87,-111.37,28.4,74.0,5.0,6.93,CA,1603247479.0
ingham,42.6,-84.38,48.2,76.0,90.0,9.17,US,1603247479.0
baykit,61.67,96.37,26.55,94.0,99.0,2.33,RU,1603247479.0
paita,-5.09,-81.11,64.09,83.0,3.0,10.11,PE,1603247480.0
jacareacanga,-6.22,-57.75,78.53,62.0,91.0,1.52,BR,1603247480.0
kawalu,-7.38,108.21,79.83,74.0,100.0,0.63,ID,1603247480.0
praia da vitoria,38.73,-27.07,60.8,72.0,40.0,24.23,PT,1603247480.0
parana,-31.73,-60.52,57.99,77.0,100.0,1.99,AR,1603247481.0
paradwip,,,,,,,,
jalu,29.03,21.55,64.2,66.0,0.0,10.54,LY,1603247481.0
katobu,-4.94,122.53,92.93,42.0,58.0,2.64,ID,1603247481.0
panyutyne,48.93,36.28,38.07,80.0,3.0,4.32,UA,1603247482.0
maniitsoq,65.42,-52.9,33.73,89.0,100.0,22.66,GL,1603247482.0
new norfolk,-42.78,147.06,68.0,53.0,97.0,1.01,AU,1603247482.0
shitanjing,39.23,106.34,49.87,39.0,0.0,6.89,CN,1603247482.0
diamantino,-14.41,-56.45,73.09,89.0,95.0,4.09,BR,1603247483.0
novolvovsk,,,,,,,,
irituia,-1.77,-47.44,74.48,87.0,42.0,3.27,BR,1603247483.0
mentok,,,,,,,,
florianopolis,-27.61,-48.5,72.0,100.0,75.0,8.05,BR,1603247484.0
dalby,-27.18,151.27,73.4,49.0,40.0,13.87,AU,1603247484.0
seredka,58.16,28.19,35.6,93.0,40.0,4.47,RU,1603247484.0
portales,34.19,-103.33,70.0,18.0,1.0,5.82,US,1603247484.0
mutsamudu,,,,,,,,
canalete,8.68,-76.2,74.93,91.0,53.0,4.41,CO,1603247485.0
leningradskiy,69.38,178.42,35.2,84.0,34.0,8.37,RU,1603247485.0
plouzane,48.38,-4.62,59.0,93.0,90.0,6.93,FR,1603247405.0
agsu,,,,,,,,
smithers,54.78,-127.17,33.8,100.0,75.0,5.82,CA,1603247486.0
beyneu,45.32,55.2,44.08,75.0,91.0,9.82,KZ,1603247486.0
clarence town,-32.58,151.78,80.01,50.0,20.0,18.34,AU,1603247486.0
berbera,10.44,45.01,81.27,56.0,0.0,4.29,SO,1603247486.0
kruisfontein,-34.0,24.73,48.99,91.0,0.0,1.01,ZA,1603247487.0
melo,-32.37,-54.18,56.62,79.0,87.0,15.64,UY,1603247487.0
nyul,47.59,17.69,51.8,81.0,100.0,13.87,HU,1603247487.0
severo-yeniseyskiy,60.37,93.04,27.75,97.0,100.0,7.31,RU,1603247487.0
gornopravdinsk,60.05,69.9,33.69,92.0,95.0,4.85,RU,1603247488.0
judaberg,59.17,5.87,53.6,93.0,75.0,10.29,NO,1603247488.0
maryville,35.76,-83.97,62.01,93.0,1.0,4.7,US,1603247195.0
dabakala,8.37,-4.43,72.19,91.0,17.0,2.77,CI,1603247488.0
rebrikha,53.07,82.34,42.13,59.0,26.0,11.05,RU,1603247489.0
kilimatinde,-5.85,34.95,63.7,76.0,41.0,2.26,TZ,1603247489.0
morehead,37.27,-87.18,68.0,92.0,90.0,9.31,US,1603247489.0
maragogi,-9.01,-35.22,75.65,84.0,82.0,7.43,BR,1603247489.0
ahipara,-35.17,173.17,63.81,71.0,100.0,6.31,NZ,1603247490.0
kuito,-12.38,16.93,62.1,80.0,2.0,5.28,AO,1603247490.0
zagyvarekas,47.27,20.13,42.8,87.0,100.0,4.7,HU,1603247490.0
hamilton,39.18,-84.53,55.99,93.0,90.0,5.01,US,1603247490.0
cabo san lucas,22.89,-109.91,84.0,83.0,5.0,12.75,MX,1603247491.0
geraldton,-28.77,114.6,69.8,60.0,75.0,17.22,AU,1603247491.0
ngaoundere,7.32,13.58,64.11,73.0,0.0,1.43,CM,1603247491.0
vyazemskiy,47.54,134.75,56.48,52.0,100.0,11.83,RU,1603247491.0
bahia de caraquez,-0.6,-80.42,73.4,78.0,20.0,12.75,EC,1603247491.0
margate,51.38,1.39,59.0,90.0,100.0,15.26,GB,1603247424.0
naron,43.52,-8.15,60.01,93.0,75.0,4.7,ES,1603247492.0
isangel,-19.55,169.27,84.2,62.0,75.0,9.17,VU,1603247492.0
mitsamiouli,-11.38,43.28,78.71,74.0,17.0,2.77,KM,1603247492.0
mamou,10.5,-12.0,67.57,86.0,0.0,2.24,GN,1603247493.0
pirapora,-17.34,-44.94,67.39,91.0,100.0,1.59,BR,1603247493.0
cap malheureux,-19.98,57.61,75.0,71.0,0.0,5.01,MU,1603247493.0
haverfordwest,51.8,-4.97,55.99,92.0,100.0,8.99,GB,1603247493.0
sao joao da barra,-21.64,-41.05,72.23,87.0,66.0,9.15,BR,1603247494.0
tual,-5.67,132.75,77.83,86.0,100.0,8.86,ID,1603247494.0
constantine,36.37,6.61,50.0,61.0,0.0,3.36,DZ,1603247494.0
srednekolymsk,67.45,153.68,18.99,96.0,69.0,4.34,RU,1603247494.0
staryy nadym,65.61,72.68,26.37,98.0,100.0,4.85,RU,1603247494.0
coquimbo,-29.95,-71.34,53.6,93.0,0.0,3.36,CL,1603247495.0
mecca,21.43,39.83,76.12,18.0,0.0,6.71,SA,1603247248.0
valparaiso,-33.04,-71.63,50.0,100.0,0.0,8.05,CL,1603247495.0
manta,-0.95,-80.73,73.4,78.0,20.0,12.75,EC,1603247495.0
sakaraha,-22.9,44.53,67.69,45.0,0.0,0.54,MG,1603247496.0
eureka,40.8,-124.16,61.0,81.0,11.0,5.01,US,1603247496.0
zhezkazgan,47.8,67.71,45.1,48.0,69.0,7.54,KZ,1603247496.0
carahue,-38.7,-73.17,46.4,93.0,1.0,5.82,CL,1603247496.0
kahului,20.89,-156.47,89.6,40.0,20.0,11.41,US,1603247377.0
waingapu,-9.66,120.26,87.51,56.0,42.0,9.48,ID,1603247497.0
narsaq,60.92,-46.05,30.2,86.0,100.0,2.24,GL,1603247497.0
helong,42.54,129.0,58.21,37.0,100.0,2.75,CN,1603247497.0
ziro,27.63,93.83,64.0,79.0,2.0,0.63,IN,1603247497.0
iracoubo,5.48,-53.2,80.67,78.0,100.0,13.0,GF,1603247498.0
teno,-34.87,-71.18,64.4,48.0,0.0,3.36,CL,1603247498.0
guerrero negro,27.98,-114.06,69.82,86.0,0.0,14.34,MX,1603247498.0
adrar,20.5,-10.07,81.63,18.0,0.0,5.66,MR,1603247498.0
bucerias,20.75,-105.33,84.2,83.0,20.0,2.24,MX,1603247499.0
la asuncion,11.03,-63.86,84.2,74.0,6.0,10.29,VE,1603247499.0
vung tau,10.35,107.08,83.64,74.0,92.0,6.29,VN,1603247499.0
grand centre,,,,,,,,
kristiansund,63.11,7.73,37.4,86.0,100.0,5.82,NO,1603247500.0
layou,13.2,-61.27,78.8,88.0,20.0,8.01,VC,1603247500.0
half moon bay,37.46,-122.43,73.4,87.0,1.0,3.83,US,1603247500.0
atar,20.52,-13.05,84.18,27.0,0.0,5.32,MR,1603247500.0
anapolis,-16.33,-48.95,73.4,83.0,100.0,4.7,BR,1603247501.0
le mont-sur-lausanne,46.56,6.63,50.0,84.0,73.0,1.99,CH,1603247501.0
phangnga,8.45,98.53,84.2,74.0,20.0,3.36,TH,1603247501.0
churapcha,62.0,132.43,20.79,96.0,100.0,6.91,RU,1603247501.0
puerto del rosario,28.5,-13.86,73.4,69.0,95.0,8.39,ES,1603247502.0
saint-denis,48.92,2.33,57.2,87.0,100.0,6.93,FR,1603247502.0
attawapiskat,,,,,,,,
sorvag,,,,,,,,
kushmurun,52.45,64.63,43.79,87.0,0.0,12.73,KZ,1603247410.0
matagami,49.75,-77.63,26.6,100.0,1.0,2.42,CA,1603247503.0
villamontes,-21.25,-63.5,71.28,86.0,74.0,5.64,BO,1603247503.0
camacha,33.08,-16.33,64.4,88.0,40.0,12.75,PT,1603247503.0
skibbereen,51.55,-9.27,46.4,100.0,75.0,3.36,IE,1603247504.0
dargaville,-35.93,173.88,63.93,70.0,100.0,3.98,NZ,1603247504.0
beloha,-25.17,45.05,65.25,76.0,0.0,3.36,MG,1603247504.0
khonuu,,,,,,,,
karaul,,,,,,,,
bonavista,48.65,-53.11,54.0,79.0,99.0,5.99,CA,1603247505.0
laramie,41.31,-105.59,48.0,52.0,90.0,16.11,US,1603247505.0
yinchuan,38.47,106.27,50.49,34.0,0.0,0.45,CN,1603247505.0
jardim,-21.48,-56.14,74.08,79.0,60.0,5.17,BR,1603247505.0
concordia,-31.39,-58.02,55.0,74.0,91.0,11.99,AR,1603247506.0
manggar,-2.88,108.27,86.99,64.0,89.0,5.37,ID,1603247506.0
tumannyy,,,,,,,,
presidencia roque saenz pena,-26.79,-60.44,78.75,69.0,34.0,9.62,AR,1603247506.0
ngukurr,,,,,,,,
anchorage,61.22,-149.9,37.4,59.0,1.0,3.36,US,1603247507.0
yamada,39.47,141.95,61.38,59.0,0.0,7.47,JP,1603247507.0
gresham,45.5,-122.43,60.01,67.0,93.0,2.19,US,1603247507.0
kualakapuas,-3.01,114.39,87.8,62.0,20.0,2.24,ID,1603247508.0
monteiro,-7.89,-37.12,63.64,92.0,47.0,6.67,BR,1603247508.0
lagoa,39.05,-27.98,63.12,68.0,52.0,25.03,PT,1603247508.0
ipatovo,45.72,42.9,43.52,70.0,32.0,7.65,RU,1603247509.0
bara,10.37,10.73,72.54,64.0,13.0,2.8,NG,1603247509.0
denpasar,-8.65,115.22,84.2,79.0,40.0,12.75,ID,1603247509.0
serenje,-13.23,30.24,62.89,54.0,0.0,3.0,ZM,1603247509.0
hailar,49.2,119.7,30.18,98.0,100.0,18.34,CN,1603247510.0
athabasca,54.72,-113.29,25.54,87.0,73.0,5.23,CA,1603247510.0
moranbah,-22.0,148.05,92.8,26.0,0.0,12.08,AU,1603247510.0
berdigestyakh,62.1,126.7,26.78,96.0,100.0,0.4,RU,1603247510.0
rio grande,-32.03,-52.1,63.0,85.0,100.0,8.99,BR,1603247371.0
aktash,50.3,87.73,29.3,87.0,16.0,5.03,RU,1603247511.0
sfantu gheorghe,45.87,25.78,33.01,89.0,0.0,1.79,RO,1603247511.0
tuatapere,-46.13,167.68,55.99,62.0,48.0,13.0,NZ,1603247511.0
uray,60.12,64.78,29.43,98.0,34.0,5.68,RU,1603247512.0
praia,14.92,-23.51,80.6,78.0,95.0,9.17,CV,1603247410.0
yashalta,46.34,42.28,44.78,69.0,11.0,6.31,RU,1603247512.0
cabedelo,-6.98,-34.83,75.2,94.0,75.0,11.41,BR,1603247512.0
sosva,59.18,61.86,28.94,98.0,92.0,4.79,RU,1603247512.0
zaysan,47.47,84.87,44.91,50.0,0.0,2.1,KZ,1603247513.0
port-gentil,-0.72,8.78,78.28,86.0,100.0,12.53,GA,1603247513.0
shubarshi,48.59,57.19,38.89,76.0,1.0,11.45,KZ,1603247513.0
biak,-0.91,122.88,84.4,62.0,58.0,8.05,ID,1603247513.0
inirida,3.87,-67.92,75.47,90.0,84.0,1.32,CO,1603247514.0
cortez,37.35,-108.59,55.0,25.0,1.0,4.7,US,1603247514.0
tarko-sale,64.92,77.78,26.64,98.0,98.0,9.73,RU,1603247514.0
prescott,34.54,-112.47,66.2,16.0,1.0,8.05,US,1603247514.0
xiongshi,,,,,,,,
visby,57.64,18.3,51.01,93.0,100.0,6.93,SE,1603247515.0
gotsu,35.0,132.22,73.4,49.0,20.0,10.29,JP,1603247515.0
sao felix do xingu,-6.64,-51.99,74.95,75.0,35.0,0.25,BR,1603247515.0
pontianak,-0.03,109.33,91.47,55.0,70.0,2.89,ID,1603247430.0
balykshi,47.07,51.87,41.0,75.0,82.0,8.95,KZ,1603247516.0
solnechnyy,50.72,136.63,45.64,57.0,100.0,9.69,RU,1603247516.0
neiafu,-18.65,-173.98,78.8,74.0,75.0,8.05,TO,1603247516.0
marathopolis,,,,,,,,
luziania,-16.25,-47.95,69.8,94.0,75.0,3.36,BR,1603247517.0
linqiong,30.42,103.46,66.0,82.0,95.0,2.24,CN,1603247517.0
eha amufu,6.66,7.76,77.0,94.0,40.0,2.24,NG,1603247517.0
palu,-0.89,119.87,89.02,56.0,100.0,3.06,ID,1603247517.0
talcahuano,-36.72,-73.12,50.0,76.0,0.0,14.99,CL,1603247362.0
nikel,69.41,30.22,26.6,92.0,40.0,5.82,RU,1603247518.0
gannan,47.91,123.5,45.61,59.0,95.0,15.03,CN,1603247518.0
pilar,-9.6,-35.96,71.6,88.0,20.0,1.12,BR,1603247518.0
nakusp,50.25,-117.8,36.0,97.0,100.0,1.01,CA,1603247518.0
san rafael,-34.62,-68.33,55.2,56.0,0.0,8.34,AR,1603247519.0
vitim,59.45,112.56,27.39,95.0,100.0,9.95,RU,1603247519.0
halifax,44.65,-63.57,59.0,95.0,98.0,1.01,CA,1603247519.0
virar,19.47,72.8,84.2,83.0,20.0,3.83,IN,1603247519.0
sur,22.57,59.53,77.11,57.0,0.0,4.36,OM,1603247520.0
tanout,14.97,8.89,81.09,15.0,0.0,7.16,NE,1603247520.0
arrifes,37.77,-25.7,59.0,72.0,40.0,11.41,PT,1603247520.0
ondorhaan,,,,,,,,
salmas,38.2,44.77,44.6,56.0,0.0,6.93,IR,1603247521.0
ratnagiri,16.98,73.3,79.88,83.0,28.0,3.42,IN,1603247521.0
brae,60.4,-1.35,48.2,81.0,100.0,27.51,GB,1603247521.0
maceio,-9.67,-35.74,71.6,88.0,20.0,1.12,BR,1603247248.0
saurimo,-9.66,20.39,63.21,88.0,57.0,2.84,AO,1603247522.0
muros,42.78,-9.06,59.0,91.0,76.0,15.99,ES,1603247522.0
selfoss,63.93,-21.0,36.0,93.0,100.0,3.0,IS,1603247522.0
acari,-15.43,-74.62,62.26,64.0,32.0,3.47,PE,1603247522.0
penzance,50.12,-5.54,55.99,93.0,100.0,8.05,GB,1603247522.0
ternate,0.8,127.4,84.02,69.0,33.0,7.02,ID,1603247523.0
wanning,18.8,110.4,75.9,77.0,80.0,15.79,CN,1603247523.0
tahoua,14.89,5.27,84.88,14.0,0.0,7.56,NE,1603247523.0
ngama,11.78,17.17,79.74,18.0,0.0,5.55,TD,1603247523.0
jiangyou,31.77,104.72,63.72,60.0,89.0,4.21,CN,1603247366.0
tunduru,,,,,,,,
deputatskiy,69.3,139.9,10.35,95.0,100.0,1.79,RU,1603247524.0
hauterive,46.09,3.45,62.6,59.0,20.0,24.16,FR,1603247524.0
debre tabor,11.85,38.02,48.63,86.0,11.0,4.81,ET,1603247525.0
sampaloc,14.54,121.36,80.6,88.0,90.0,8.05,PH,1603247525.0
probolinggo,-7.75,113.22,87.76,55.0,10.0,5.77,ID,1603247525.0
blackwater,-23.58,148.88,86.49,39.0,69.0,10.07,AU,1603247525.0
vaitape,-16.52,-151.75,79.92,78.0,10.0,13.96,PF,1603247525.0
