City,Lat,Lng,Max Temp,Humidity,Cloudiness,Wind Speed,Contry,Date
Paris,48.85,2.35,51.8,76,83,9.17,FR,1603150528
London,51.51,-0.13,55.4,66,100,8.05,GB,1603150591
New York City,40.71,-74.01,62.6,77,75,5.82,US,1603150610
Chicago,41.85,-87.65,42.01,88,100,11.52,US,1603150650
Brasilia,-15.78,-47.93,69.8,94,75,6.93,BR,1603150755
