City,Lat,Lng,Max Temp,Humidity,Cloudiness,Wind Speed,Country,Date
ban tak,17.04,99.08,70.21,91.0,94.0,1.63,TH,1603228830.0
praia da vitoria,38.73,-27.07,62.6,72.0,40.0,27.49,PT,1603228831.0
jamestown,42.1,-79.24,48.0,93.0,90.0,8.05,US,1603228831.0
verkhoyansk,67.54,133.38,8.74,90.0,90.0,3.53,RU,1603228831.0
saleaula,,,,,,,,
tuktoyaktuk,69.45,-133.04,23.0,85.0,90.0,18.34,CA,1603228832.0
palabuhanratu,,,,,,,,
ust-kamchatsk,,,,,,,,
rikitea,-23.12,-134.97,73.51,79.0,0.0,14.97,PF,1603228833.0
busselton,-33.65,115.33,54.0,70.0,0.0,7.0,AU,1603228833.0
khatanga,71.97,102.5,5.88,95.0,83.0,8.23,RU,1603228833.0
ayan,56.45,138.17,34.05,77.0,100.0,3.87,RU,1603228833.0
ushuaia,-54.8,-68.3,44.6,62.0,75.0,13.87,AR,1603228834.0
la ronge,55.1,-105.28,26.6,58.0,90.0,4.7,CA,1603228834.0
butaritari,3.07,172.79,81.91,77.0,93.0,11.92,KI,1603228834.0
norman wells,65.28,-126.83,21.2,85.0,75.0,13.87,CA,1603228834.0
ribeira grande,38.52,-28.7,62.6,67.0,75.0,5.82,PT,1603228835.0
cape town,-33.93,18.42,55.0,76.0,0.0,4.7,ZA,1603228777.0
mehamn,71.04,27.85,28.4,92.0,75.0,8.05,NO,1603228835.0
barrow,71.29,-156.79,24.8,85.0,90.0,9.17,US,1603228835.0
hermanus,-34.42,19.23,46.99,89.0,0.0,3.29,ZA,1603228836.0
illoqqortoormiut,,,,,,,,
glendive,47.11,-104.71,33.8,74.0,90.0,16.11,US,1603228836.0
mizque,-17.94,-65.34,75.38,37.0,68.0,9.86,BO,1603228836.0
hilo,19.73,-155.09,84.2,58.0,1.0,12.75,US,1603228837.0
amderma,,,,,,,,
narsaq,60.92,-46.05,32.0,86.0,40.0,4.18,GL,1603228837.0
samoded,63.61,40.51,26.87,98.0,95.0,6.22,RU,1603228837.0
kyra,49.58,111.98,20.89,83.0,0.0,6.87,RU,1603228838.0
barentsburg,,,,,,,,
oktyabrskoye,43.06,44.74,51.8,87.0,100.0,4.47,RU,1603228838.0
castro,-24.79,-50.01,70.23,77.0,58.0,0.47,BR,1603228838.0
kaitangata,-46.28,169.85,50.02,63.0,96.0,3.49,NZ,1603228839.0
albany,42.6,-73.97,64.0,80.0,100.0,3.0,US,1603228839.0
lebu,-37.62,-73.65,52.52,67.0,0.0,19.69,CL,1603228839.0
puerto ayora,-0.74,-90.35,75.2,73.0,75.0,18.34,EC,1603228839.0
hobart,-42.88,147.33,54.0,81.0,75.0,2.77,AU,1603228839.0
bluff,-46.6,168.33,52.0,74.0,67.0,3.0,NZ,1603228840.0
arona,28.1,-16.68,75.2,73.0,20.0,4.7,ES,1603228840.0
east london,-33.02,27.91,61.39,67.0,9.0,10.38,ZA,1603228850.0
matay,28.42,30.78,76.08,39.0,0.0,7.9,EG,1603228567.0
avarua,-21.21,-159.78,78.8,83.0,35.0,9.17,CK,1603228851.0
mataura,-46.19,168.86,52.0,74.0,45.0,3.0,NZ,1603228851.0
vanavara,60.34,102.28,23.32,98.0,85.0,3.83,RU,1603228851.0
barranca,-10.75,-77.77,66.6,71.0,14.0,8.66,PE,1603228852.0
skovorodino,53.98,123.92,32.45,97.0,100.0,4.03,RU,1603228852.0
isangel,-19.55,169.27,80.6,74.0,20.0,6.93,VU,1603228852.0
klaksvik,62.23,-6.59,39.2,80.0,25.0,11.41,FO,1603228852.0
coahuayana,18.73,-103.68,84.2,66.0,75.0,11.41,MX,1603228853.0
kamaishi,39.27,141.88,52.27,70.0,3.0,4.99,JP,1603228853.0
port lincoln,-34.73,135.87,57.45,85.0,12.0,11.45,AU,1603228853.0
ust-nera,64.57,143.2,4.23,87.0,75.0,3.78,RU,1603228853.0
kibala,9.11,18.35,80.6,83.0,8.0,1.36,TD,1603228854.0
grand river south east,,,,,,,,
rizhao,35.43,119.46,58.57,79.0,100.0,8.46,CN,1603228854.0
muchkapskiy,51.85,42.47,37.58,79.0,0.0,9.15,RU,1603228854.0
nguiu,,,,,,,,
bambous virieux,-20.34,57.76,75.2,78.0,20.0,11.41,MU,1603228855.0
sentyabrskiy,,,,,,,,
taolanaro,,,,,,,,
chicama,-7.84,-79.15,66.2,77.0,24.0,11.41,PE,1603228856.0
tanshui,,,,,,,,
clyde river,70.47,-68.59,30.2,74.0,90.0,11.41,CA,1603228856.0
marovoay,-16.1,46.63,77.0,78.0,20.0,2.24,MG,1603228856.0
kalas,18.17,74.8,74.79,84.0,87.0,7.56,IN,1603228857.0
kapaa,22.08,-159.32,75.2,88.0,75.0,9.17,US,1603228857.0
cayenne,4.93,-52.33,86.0,66.0,99.0,10.29,GF,1603228857.0
xuddur,4.12,43.89,74.5,79.0,49.0,15.01,SO,1603228857.0
yellowknife,62.46,-114.35,27.0,73.0,75.0,9.17,CA,1603228591.0
tocantinopolis,,,,,,,,
cairns,-16.92,145.77,73.4,83.0,75.0,6.93,AU,1603228858.0
constitucion,-35.33,-72.42,59.29,61.0,0.0,18.86,CL,1603228858.0
nanortalik,60.14,-45.24,37.02,87.0,98.0,6.62,GL,1603228859.0
trelew,-43.25,-65.31,57.22,38.0,98.0,19.22,AR,1603228658.0
half moon bay,37.46,-122.43,82.99,87.0,1.0,5.82,US,1603228859.0
saint george,37.1,-113.58,84.99,13.0,1.0,2.75,US,1603228859.0
kurilsk,45.23,147.88,42.39,63.0,0.0,4.47,RU,1603228860.0
bengkulu,-3.8,102.27,76.6,80.0,100.0,3.53,ID,1603228860.0
atuona,-9.8,-139.03,77.77,73.0,4.0,18.05,PF,1603228860.0
guerrero negro,27.98,-114.06,80.1,55.0,1.0,14.09,MX,1603228861.0
porto de moz,-1.75,-52.24,91.38,46.0,97.0,6.76,BR,1603228861.0
gizo,-8.1,156.84,83.86,72.0,85.0,5.77,SB,1603228745.0
tiksi,71.69,128.87,10.0,92.0,100.0,11.07,RU,1603228757.0
mentok,,,,,,,,
krasnyy mayak,,,,,,,,
qaanaaq,77.48,-69.36,20.98,83.0,0.0,6.51,GL,1603228862.0
kaeo,-35.1,173.78,64.0,88.0,100.0,3.0,NZ,1603228863.0
vaini,-21.2,-175.2,77.0,61.0,75.0,10.29,TO,1603228863.0
katsuura,35.13,140.3,59.0,77.0,20.0,14.99,JP,1603228660.0
sur,22.57,59.53,72.99,63.0,0.0,5.32,OM,1603228864.0
russell,32.35,-85.2,84.2,48.0,75.0,9.17,US,1603228864.0
muros,42.78,-9.06,57.99,90.0,100.0,8.99,ES,1603228864.0
faanui,-16.48,-151.75,78.87,81.0,26.0,16.15,PF,1603228864.0
attawapiskat,,,,,,,,
leningradskiy,69.38,178.42,34.45,85.0,100.0,9.4,RU,1603228865.0
belyy yar,53.6,91.39,37.4,79.0,86.0,4.94,RU,1603228865.0
evensk,61.95,159.23,34.07,89.0,86.0,5.44,RU,1603228865.0
iqaluit,63.75,-68.51,30.2,74.0,75.0,5.82,CA,1603228866.0
kangaatsiaq,68.31,-53.46,36.54,93.0,100.0,18.99,GL,1603228866.0
oliveira,-20.7,-44.83,63.3,95.0,100.0,5.93,BR,1603228764.0
kosice,48.67,21.33,45.0,87.0,37.0,4.7,SK,1603228592.0
alihe,50.57,123.72,35.82,84.0,100.0,2.08,CN,1603228867.0
port hardy,50.7,-127.42,50.0,87.0,75.0,2.24,CA,1603228867.0
coquimbo,-29.95,-71.34,57.2,82.0,75.0,13.87,CL,1603228867.0
mahebourg,-20.41,57.7,75.2,78.0,20.0,11.41,MU,1603228828.0
punta arenas,-53.15,-70.92,50.0,46.0,75.0,13.87,CL,1603228798.0
tilichiki,60.47,166.1,40.32,90.0,100.0,26.93,RU,1603228868.0
port macquarie,-31.43,152.92,60.01,96.0,2.0,3.56,AU,1603228868.0
sao filipe,14.9,-24.5,84.54,59.0,100.0,6.71,CV,1603228868.0
nambucca heads,-30.65,153.0,60.8,87.0,40.0,2.21,AU,1603228869.0
saskylakh,71.92,114.08,20.84,97.0,99.0,7.76,RU,1603228869.0
cidreira,-30.18,-50.21,69.42,89.0,13.0,8.7,BR,1603228869.0
comodoro rivadavia,-45.87,-67.5,53.6,57.0,51.0,17.22,AR,1603228675.0
talcahuano,-36.72,-73.12,59.0,62.0,4.0,19.46,CL,1603228870.0
xunchang,28.45,104.72,55.04,89.0,88.0,3.04,CN,1603228870.0
laguna,38.42,-121.42,89.01,23.0,1.0,3.36,US,1603228870.0
ahualulco,22.4,-101.17,80.6,18.0,20.0,5.82,MX,1603228870.0
longyearbyen,78.22,15.64,21.2,79.0,8.0,4.25,SJ,1603228871.0
rocha,-34.48,-54.33,52.21,84.0,100.0,9.4,UY,1603228871.0
prince george,53.92,-122.75,41.0,64.0,1.0,8.05,CA,1603228871.0
bredasdorp,-34.53,20.04,46.4,87.0,0.0,1.12,ZA,1603228871.0
borovoy,55.43,86.08,35.6,80.0,40.0,4.47,RU,1603228872.0
yumen,40.28,97.2,43.88,48.0,0.0,8.63,CN,1603228872.0
kedrovyy,56.17,91.82,37.4,96.0,40.0,8.95,RU,1603228872.0
bonthe,7.53,-12.51,78.39,84.0,99.0,3.91,SL,1603228766.0
linjiang,41.81,126.91,44.82,62.0,100.0,1.66,CN,1603228873.0
ponta do sol,32.67,-17.1,66.2,63.0,20.0,3.36,PT,1603228873.0
marica,-22.92,-42.82,80.6,78.0,20.0,13.87,BR,1603228873.0
kruisfontein,-34.0,24.73,53.01,84.0,0.0,1.99,ZA,1603228873.0
sioux lookout,50.1,-91.92,33.8,47.0,75.0,5.82,CA,1603228874.0
ilulissat,69.22,-51.1,37.4,95.0,100.0,8.05,GL,1603228874.0
nikolskoye,59.7,30.79,34.0,91.0,40.0,4.47,RU,1603228874.0
alice springs,-23.7,133.88,68.0,82.0,40.0,5.82,AU,1603228874.0
carutapera,-1.2,-46.02,81.28,72.0,19.0,8.99,BR,1603228875.0
carnarvon,-24.87,113.63,66.2,82.0,38.0,14.99,AU,1603228875.0
marsh harbour,26.54,-77.06,81.61,75.0,100.0,22.01,BS,1603228875.0
saint-philippe,-21.36,55.77,71.6,64.0,18.0,5.82,RE,1603228875.0
todos santos,23.45,-110.22,84.99,73.0,0.0,3.0,MX,1603228876.0
chokurdakh,70.63,147.92,12.02,97.0,87.0,3.11,RU,1603228758.0
manavalakurichi,8.13,77.3,78.8,88.0,20.0,11.23,IN,1603228876.0
liminangcong,,,,,,,,
nuevo progreso,23.17,-97.95,87.01,55.0,22.0,8.01,MX,1603228877.0
tuatapere,-46.13,167.68,52.0,74.0,16.0,3.0,NZ,1603228877.0
orange cove,36.62,-119.31,84.0,34.0,1.0,3.02,US,1603228877.0
nioro,13.35,-15.75,82.06,53.0,71.0,6.15,GM,1603228877.0
leshukonskoye,64.9,45.76,21.47,98.0,85.0,5.21,RU,1603228878.0
new norfolk,-42.78,147.06,54.0,69.0,99.0,1.92,AU,1603228878.0
banjar,-8.19,114.97,78.8,100.0,0.0,3.36,ID,1603228878.0
eyl,7.98,49.82,80.13,78.0,0.0,5.46,SO,1603228878.0
pula,44.87,13.85,46.4,93.0,20.0,2.24,HR,1603228879.0
arraial do cabo,-22.97,-42.03,75.2,78.0,0.0,20.8,BR,1603228879.0
rassvet,46.83,40.75,46.89,62.0,18.0,6.96,RU,1603228879.0
santa cruz,-17.8,-63.17,89.6,49.0,75.0,13.87,BO,1603228879.0
bay city,43.59,-83.89,48.2,75.0,90.0,10.29,US,1603228880.0
belushya guba,,,,,,,,
tonj,7.27,28.68,72.1,92.0,9.0,4.43,SS,1603228880.0
wanning,18.8,110.4,71.6,89.0,80.0,12.64,CN,1603228880.0
keti bandar,24.14,67.45,82.31,59.0,0.0,10.47,PK,1603228881.0
lavrentiya,65.58,-171.0,37.51,94.0,100.0,12.91,RU,1603228881.0
santa maria da boa vista,-8.81,-39.83,89.8,21.0,0.0,12.37,BR,1603228881.0
khandyga,62.67,135.6,14.29,96.0,95.0,4.07,RU,1603228881.0
korla,41.76,86.15,47.3,47.0,0.0,4.12,CN,1603228882.0
bartlesville,36.75,-95.98,55.4,87.0,90.0,3.36,US,1603228882.0
ancud,-41.87,-73.82,53.6,50.0,0.0,11.41,CL,1603228686.0
anadyr,64.75,177.48,42.8,81.0,75.0,17.9,RU,1603228882.0
bandarbeyla,9.49,50.81,78.96,72.0,0.0,5.91,SO,1603228883.0
sitka,57.05,-135.33,46.4,70.0,20.0,3.94,US,1603228674.0
lagoa,39.05,-27.98,63.41,67.0,49.0,28.83,PT,1603228883.0
pevek,69.7,170.31,30.51,95.0,100.0,18.05,RU,1603228861.0
itamaraca,-7.75,-34.83,80.6,69.0,40.0,11.41,BR,1603228884.0
sola,-13.88,167.55,82.4,83.0,90.0,2.24,VU,1603228884.0
tura,25.52,90.22,72.07,92.0,0.0,2.89,IN,1603228884.0
zhigansk,66.77,123.37,15.03,96.0,100.0,4.65,RU,1603228884.0
padang,-0.95,100.35,78.73,73.0,81.0,4.61,ID,1603228885.0
inhambane,-23.86,35.38,73.49,90.0,0.0,9.01,MZ,1603228861.0
sorland,67.67,12.69,35.6,74.0,40.0,8.05,NO,1603228885.0
orcopampa,-15.27,-72.34,53.65,41.0,90.0,5.32,PE,1603228885.0
tsiroanomandidy,-18.77,46.03,72.54,54.0,0.0,3.51,MG,1603228886.0
mar del plata,-38.0,-57.56,55.4,50.0,22.0,11.41,AR,1603228886.0
severo-yeniseyskiy,60.37,93.04,24.62,99.0,99.0,2.44,RU,1603228886.0
kodiak,57.79,-152.41,46.4,49.0,1.0,16.11,US,1603228763.0
saint-gilles,43.68,4.43,62.6,72.0,90.0,13.87,FR,1603228887.0
port-gentil,-0.72,8.78,78.8,88.0,40.0,4.7,GA,1603228887.0
fuyang,32.9,115.82,56.48,79.0,89.0,6.76,CN,1603228887.0
caconda,-13.73,15.07,67.42,70.0,35.0,7.74,AO,1603228887.0
montorio al vomano,42.58,13.64,53.01,65.0,35.0,4.0,IT,1603228888.0
qaqortoq,60.72,-46.03,32.0,87.0,40.0,4.45,GL,1603228888.0
muromtsevo,56.37,75.24,45.27,75.0,100.0,8.88,RU,1603228888.0
chandbali,20.78,86.77,79.65,87.0,96.0,6.8,IN,1603228889.0
tasiilaq,65.61,-37.64,33.8,59.0,100.0,19.46,GL,1603228889.0
georgetown,5.41,100.34,80.6,88.0,20.0,3.36,MY,1603228801.0
thinadhoo,0.53,72.93,82.47,77.0,95.0,13.0,MV,1603228889.0
aykhal,66.0,111.5,8.6,92.0,90.0,4.47,RU,1603228890.0
si sa ket,14.83,104.33,70.34,94.0,90.0,6.67,TH,1603228890.0
gamba,-2.65,10.0,76.69,88.0,100.0,6.29,GA,1603228890.0
port augusta,-32.5,137.77,63.0,93.0,9.0,5.82,AU,1603228890.0
bonavista,48.65,-53.11,55.0,85.0,100.0,7.0,CA,1603228891.0
torbay,47.67,-52.73,57.2,76.0,75.0,16.11,CA,1603228891.0
kavieng,-2.57,150.8,81.25,81.0,96.0,12.06,PG,1603228891.0
phonhong,18.5,102.42,72.3,84.0,100.0,2.57,LA,1603228891.0
tsihombe,,,,,,,,
touros,-5.2,-35.46,78.8,74.0,20.0,6.93,BR,1603228892.0
deer lake,49.17,-57.43,62.6,77.0,75.0,11.41,CA,1603228892.0
paamiut,61.99,-49.67,37.42,79.0,100.0,7.81,GL,1603228892.0
te anau,-45.42,167.72,46.58,62.0,16.0,3.11,NZ,1603228892.0
marshalltown,42.05,-92.91,39.99,100.0,90.0,8.05,US,1603228893.0
canaries,28.0,-15.5,77.0,73.0,75.0,8.05,ES,1603228893.0
ostrovnoy,68.05,39.51,37.85,78.0,100.0,15.55,RU,1603228866.0
bocana de paiwas,12.79,-85.12,84.65,74.0,89.0,1.79,NI,1603228893.0
victoria,22.29,114.16,73.0,69.0,43.0,1.01,HK,1603228862.0
mys shmidta,,,,,,,,
nizhneyansk,,,,,,,,
talnakh,69.49,88.4,5.0,92.0,90.0,2.24,RU,1603228894.0
port alfred,-33.59,26.89,58.19,71.0,0.0,8.84,ZA,1603228607.0
upernavik,72.79,-56.15,33.98,85.0,100.0,3.44,GL,1603228895.0
acajutla,13.59,-89.83,84.2,58.0,40.0,4.7,SV,1603228895.0
linchuan,,,,,,,,
bethel,41.37,-73.41,68.0,72.0,40.0,4.7,US,1603228896.0
verkhnyaya toyma,62.23,45.0,27.45,98.0,100.0,7.56,RU,1603228896.0
kununurra,-15.77,128.73,78.8,94.0,40.0,5.82,AU,1603228896.0
phek,25.67,94.5,56.17,100.0,64.0,1.79,IN,1603228896.0
ekuvukeni,-28.47,30.16,58.78,75.0,93.0,7.25,ZA,1603228897.0
pinotepa nacional,16.32,-98.02,86.67,64.0,99.0,7.61,MX,1603228897.0
grand gaube,-20.01,57.66,75.0,72.0,1.0,4.0,MU,1603228897.0
vrangel,42.73,133.08,54.32,85.0,100.0,5.44,RU,1603228897.0
mount isa,-20.73,139.5,77.0,29.0,40.0,11.27,AU,1603228898.0
poum,-20.23,164.02,74.19,69.0,0.0,5.37,NC,1603228898.0
mangrol,21.12,70.12,82.49,81.0,54.0,8.97,IN,1603228628.0
tupik,54.43,119.93,23.92,95.0,98.0,8.9,RU,1603228898.0
barra bonita,-22.49,-48.56,73.99,82.0,50.0,1.99,BR,1603228899.0
hirara,24.8,125.28,80.53,81.0,100.0,24.09,JP,1603228899.0
safaga,26.73,33.94,78.8,50.0,0.0,8.05,EG,1603228899.0
nevel,56.02,29.93,38.35,84.0,100.0,4.5,RU,1603228899.0
dargaville,-35.93,173.88,64.54,63.0,100.0,3.87,NZ,1603228900.0
ahipara,-35.17,173.17,64.33,62.0,100.0,5.28,NZ,1603228900.0
ushtobe,45.25,77.98,44.11,56.0,0.0,1.21,KZ,1603228900.0
tereze,43.94,42.44,53.6,76.0,75.0,6.71,RU,1603228900.0
thabazimbi,-24.59,27.41,84.58,18.0,69.0,4.56,ZA,1603228901.0
jaque,7.52,-78.17,79.9,78.0,45.0,3.8,PA,1603228901.0
bijawar,24.63,79.5,72.57,32.0,0.0,0.83,IN,1603228901.0
mattru,7.62,-11.83,74.61,94.0,97.0,1.23,SL,1603228901.0
fukue,32.69,128.84,70.12,63.0,34.0,11.65,JP,1603228902.0
hobyo,5.35,48.53,80.1,81.0,0.0,18.86,SO,1603228902.0
alofi,-19.06,-169.92,75.2,83.0,90.0,17.22,NU,1603228810.0
caxito,-8.58,13.66,75.2,88.0,75.0,8.05,AO,1603228902.0
tukrah,32.53,20.58,67.78,70.0,5.0,10.56,LY,1603228903.0
la palma,33.85,-118.05,80.6,51.0,1.0,4.7,US,1603228903.0
troitskoye,52.98,84.68,39.02,69.0,75.0,6.64,RU,1603228903.0
agirish,61.92,63.02,27.7,99.0,59.0,4.79,RU,1603228903.0
vostok,46.49,135.88,33.21,89.0,33.0,5.32,RU,1603228904.0
dunedin,-45.87,170.5,46.99,90.0,100.0,5.99,NZ,1603228904.0
tomohon,1.33,124.84,73.4,94.0,40.0,1.12,ID,1603228904.0
paracatu,-17.22,-46.87,66.63,95.0,100.0,1.14,BR,1603228904.0
grindavik,63.84,-22.43,35.6,70.0,90.0,4.7,IS,1603228905.0
naze,28.37,129.48,75.2,88.0,75.0,12.75,JP,1603228905.0
elko,41.0,-115.5,73.0,15.0,0.0,15.99,US,1603228905.0
abu kamal,34.45,40.92,68.43,40.0,0.0,2.62,SY,1603228861.0
plettenberg bay,-34.05,23.37,54.59,77.0,0.0,4.65,ZA,1603228906.0
broken hill,-31.95,141.43,62.6,39.0,30.0,3.36,AU,1603228906.0
borba,-4.39,-59.59,92.8,43.0,86.0,1.28,BR,1603228906.0
butterworth,5.4,100.36,80.6,88.0,20.0,3.36,MY,1603228906.0
maceio,-9.67,-35.74,78.8,69.0,20.0,10.29,BR,1603228505.0
kalmanka,52.9,83.54,42.8,38.0,94.0,13.42,RU,1603228907.0
jumla,29.27,82.18,46.8,55.0,0.0,5.12,NP,1603228907.0
bolu,40.67,31.58,51.03,82.0,97.0,2.68,TR,1603228907.0
lahaina,20.88,-156.68,89.6,51.0,20.0,11.41,US,1603228908.0
aklavik,68.22,-135.01,23.0,79.0,90.0,20.8,CA,1603228908.0
havoysund,71.0,24.66,35.6,92.0,40.0,10.29,NO,1603228908.0
coihaique,-45.58,-72.07,57.2,41.0,75.0,10.29,CL,1603228822.0
praia,14.92,-23.51,82.4,74.0,100.0,16.11,CV,1603228909.0
north bend,43.41,-124.22,77.0,68.0,1.0,9.17,US,1603228909.0
vorukh,39.85,70.58,50.95,39.0,0.0,4.85,TJ,1603228909.0
awbari,26.59,12.78,72.39,43.0,67.0,10.29,LY,1603228909.0
vestmannaeyjar,63.44,-20.27,38.25,73.0,94.0,9.86,IS,1603228910.0
namibe,-15.2,12.15,68.63,82.0,66.0,5.1,AO,1603228910.0
sao jose da coroa grande,-8.9,-35.15,76.3,77.0,55.0,7.9,BR,1603228910.0
wajima,37.4,136.9,62.11,64.0,0.0,15.05,JP,1603228910.0
fortuna,40.6,-124.16,73.99,63.0,20.0,16.11,US,1603228911.0
asau,46.43,26.4,41.0,86.0,0.0,3.36,RO,1603228911.0
port elizabeth,-33.92,25.57,53.01,84.0,0.0,1.99,ZA,1603228777.0
lompoc,34.64,-120.46,66.99,77.0,40.0,8.05,US,1603228911.0
caravelas,-17.71,-39.25,73.96,91.0,87.0,6.24,BR,1603228912.0
marcona,,,,,,,,
springfield,37.22,-93.3,64.99,87.0,90.0,10.29,US,1603228912.0
dikson,73.51,80.55,21.76,97.0,98.0,4.76,RU,1603228912.0
saint anthony,45.02,-93.22,32.0,92.0,90.0,6.93,US,1603228913.0
lumphat,13.49,106.98,73.0,97.0,100.0,3.0,KH,1603228913.0
lata,40.16,-8.33,62.01,94.0,100.0,1.99,PT,1603228913.0
hithadhoo,-0.6,73.08,82.15,80.0,97.0,14.03,MV,1603228913.0
uwayl,,,,,,,,
melnikovo,56.56,84.08,41.0,74.0,99.0,7.36,RU,1603228914.0
bathsheba,13.22,-59.52,84.2,70.0,20.0,9.17,BB,1603228914.0
awjilah,29.11,21.29,69.78,64.0,0.0,14.7,LY,1603228914.0
fairbanks,64.84,-147.72,19.4,85.0,90.0,1.12,US,1603228915.0
kjollefjord,70.95,27.35,28.4,92.0,75.0,8.05,NO,1603228915.0
lokoja,7.8,6.74,78.15,82.0,55.0,3.31,NG,1603228915.0
kristiansund,63.11,7.73,39.2,69.0,100.0,8.05,NO,1603228906.0
altos,-5.04,-42.46,98.6,25.0,93.0,4.7,BR,1603228916.0
hami,42.8,93.45,46.11,48.0,0.0,4.23,CN,1603228916.0
nome,64.5,-165.41,35.6,82.0,75.0,5.82,US,1603228916.0
san cristobal,7.77,-72.22,84.2,66.0,40.0,11.41,VE,1603228916.0
ternate,0.8,127.4,80.82,73.0,29.0,4.7,ID,1603228917.0
suao,,,,,,,,
manta,-0.95,-80.73,84.2,58.0,20.0,13.87,EC,1603228669.0
bima,-8.47,118.72,77.32,83.0,73.0,3.62,ID,1603228918.0
oranjemund,-28.55,16.43,59.05,75.0,0.0,24.54,NA,1603228918.0
vao,-22.67,167.48,72.9,83.0,25.0,15.05,NC,1603228918.0
nishihara,26.18,127.76,80.6,69.0,75.0,17.22,JP,1603228918.0
pullman,46.73,-117.18,57.0,57.0,40.0,3.36,US,1603228638.0
marigot,18.07,-63.08,86.0,74.0,20.0,8.05,MF,1603228919.0
batagay,67.63,134.63,7.57,93.0,94.0,3.76,RU,1603228919.0
boguchany,58.38,97.45,29.37,98.0,99.0,3.31,RU,1603228729.0
tubuala,9.52,-79.03,80.6,78.0,75.0,9.17,PA,1603228920.0
kieta,-6.22,155.63,82.06,73.0,81.0,1.28,PG,1603228920.0
molfetta,41.2,16.6,51.8,87.0,0.0,5.82,IT,1603228920.0
semirom,31.42,51.57,34.83,70.0,0.0,3.67,IR,1603228920.0
fare,-16.7,-151.02,79.27,79.0,62.0,15.55,PF,1603228921.0
srednekolymsk,67.45,153.68,15.76,96.0,94.0,5.35,RU,1603228921.0
toamasina,-18.17,49.38,69.8,94.0,40.0,3.36,MG,1603228921.0
omsukchan,62.53,155.8,12.45,92.0,95.0,2.17,RU,1603228911.0
usinsk,65.99,57.53,23.67,96.0,95.0,2.68,RU,1603228922.0
trairi,-3.28,-39.27,79.52,70.0,46.0,12.21,BR,1603228849.0
emerald,-23.53,148.17,69.8,88.0,75.0,6.93,AU,1603228922.0
tongren,27.72,109.19,52.93,85.0,91.0,0.81,CN,1603228923.0
qasigiannguit,68.82,-51.19,37.4,92.0,99.0,8.05,GL,1603228923.0
kidal,18.44,1.41,88.47,13.0,1.0,4.09,ML,1603228923.0
aljezur,37.32,-8.8,62.01,96.0,24.0,5.99,PT,1603228923.0
shatrovo,56.52,64.63,37.06,86.0,33.0,7.67,RU,1603228924.0
kayerkan,69.35,87.76,5.0,92.0,90.0,2.24,RU,1603228924.0
borisoglebskiy,57.26,39.15,33.8,86.0,75.0,11.18,RU,1603228924.0
san patricio,28.02,-97.52,86.0,62.0,20.0,17.22,US,1603228924.0
upata,8.01,-62.4,91.0,63.0,36.0,4.0,VE,1603228925.0
sleaford,53.0,-0.41,57.2,93.0,94.0,13.87,GB,1603228925.0
hasaki,35.73,140.83,51.8,93.0,20.0,8.05,JP,1603228925.0
aden,12.78,45.04,84.25,58.0,0.0,3.22,YE,1603228900.0
marawi,8.0,124.29,75.0,94.0,100.0,4.0,PH,1603228926.0
walvis bay,-22.96,14.51,57.99,82.0,0.0,3.36,NA,1603228806.0
sambo creek,15.82,-86.68,89.6,59.0,75.0,9.17,HN,1603228926.0
tautira,-17.73,-149.15,84.2,70.0,20.0,13.87,PF,1603228927.0
meulaboh,4.14,96.13,76.87,85.0,54.0,4.59,ID,1603228927.0
oussouye,12.48,-16.55,84.2,83.0,40.0,4.7,SN,1603228927.0
christchurch,-43.53,172.63,57.2,67.0,61.0,3.36,NZ,1603228927.0
humen,22.82,113.67,70.0,64.0,84.0,11.18,CN,1603228928.0
fort saint john,,,,,,,,
phalombe,-15.81,35.65,76.21,42.0,53.0,4.61,MW,1603228928.0
pithoragarh,29.58,80.22,52.09,89.0,0.0,2.42,IN,1603228929.0
portland,45.52,-122.68,64.0,51.0,75.0,5.82,US,1603228827.0
razole,16.48,81.83,75.49,92.0,100.0,4.43,IN,1603228929.0
semporna,4.48,118.61,75.2,94.0,20.0,2.66,MY,1603228929.0
cherskiy,68.75,161.3,20.37,97.0,93.0,5.97,RU,1603228758.0
pangnirtung,66.15,-65.71,28.4,86.0,90.0,2.24,CA,1603228930.0
galveston,29.37,-94.97,82.0,74.0,75.0,10.29,US,1603228930.0
nushki,29.55,66.02,48.29,44.0,0.0,1.05,PK,1603228930.0
shelbyville,35.48,-86.46,78.8,54.0,1.0,3.36,US,1603228931.0
nampula,-15.12,39.27,75.0,73.0,0.0,9.17,MZ,1603228931.0
menongue,-14.66,17.69,72.16,20.0,0.0,5.17,AO,1603228862.0
jiwani,25.05,61.74,77.25,42.0,0.0,4.36,PK,1603228931.0
bayan,46.08,127.4,57.0,50.0,100.0,17.92,CN,1603228932.0
timmins,48.47,-81.33,39.2,41.0,40.0,2.24,CA,1603228645.0
kamenka,51.32,42.77,37.08,79.0,21.0,9.01,RU,1603228932.0
agva,,,,,,,,
lazaro cardenas,17.96,-102.2,85.51,74.0,100.0,6.76,MX,1603228933.0
itoman,26.12,127.67,80.6,69.0,75.0,17.22,JP,1603228933.0
nsoko,-27.03,31.95,66.56,71.0,100.0,12.06,SZ,1603228933.0
kahului,20.89,-156.47,89.6,43.0,20.0,10.29,US,1603228933.0
luwuk,-0.95,122.79,76.01,70.0,98.0,3.96,ID,1603228934.0
thompson,55.74,-97.86,30.2,68.0,90.0,3.36,CA,1603228934.0
plainview,40.78,-73.47,70.0,77.0,20.0,4.7,US,1603228934.0
burica,,,,,,,,
kendari,-3.94,122.5,73.63,86.0,100.0,2.15,ID,1603228935.0
colinas,-6.03,-44.25,88.52,35.0,67.0,2.33,BR,1603228935.0
piacabucu,-10.41,-36.43,76.19,76.0,2.0,10.89,BR,1603228935.0
seoul,37.57,126.98,55.4,71.0,90.0,2.62,KR,1603228935.0
kushmurun,52.45,64.63,50.99,52.0,97.0,5.66,KZ,1603228936.0
viedma,-40.81,-63.0,66.0,28.0,17.0,1.99,AR,1603228936.0
alugan,12.22,125.48,79.45,85.0,100.0,8.16,PH,1603228936.0
altay,47.87,88.12,36.28,68.0,3.0,3.74,CN,1603228705.0
kamenskoye,,,,,,,,
oblivskaya,48.54,42.5,41.41,64.0,22.0,8.39,RU,1603228937.0
moscow,55.75,37.62,36.0,87.0,75.0,11.18,RU,1603228911.0
jaumave,23.42,-99.38,93.2,34.0,20.0,4.7,MX,1603228937.0
pitimbu,-7.47,-34.81,78.8,78.0,63.0,9.17,BR,1603228938.0
ambanja,-13.68,48.45,76.75,79.0,55.0,1.83,MG,1603228938.0
vasilsursk,56.13,46.01,33.13,94.0,61.0,8.37,RU,1603228938.0
calabozo,8.92,-67.43,82.08,89.0,100.0,2.64,VE,1603228938.0
dawei,14.08,98.2,74.57,87.0,100.0,4.83,MM,1603228939.0
jalu,29.03,21.55,70.36,63.0,0.0,15.23,LY,1603228939.0
dingle,11.0,122.67,76.12,91.0,95.0,8.3,PH,1603228939.0
tual,-5.67,132.75,80.31,83.0,100.0,15.21,ID,1603228940.0
provideniya,64.38,-173.3,42.8,87.0,90.0,15.66,RU,1603228940.0
beringovskiy,63.05,179.32,40.64,87.0,99.0,13.02,RU,1603228940.0
saint petersburg,59.89,30.26,35.01,90.0,40.0,4.47,RU,1603228916.0
conceicao da barra,-18.59,-39.73,74.97,76.0,100.0,6.44,BR,1603228940.0
cherdyn,60.4,56.48,30.45,99.0,98.0,4.83,RU,1603228941.0
qui nhon,13.77,109.23,78.01,88.0,100.0,13.29,VN,1603228941.0
linqiong,30.42,103.46,60.01,100.0,99.0,4.56,CN,1603228941.0
bargal,,,,,,,,
ust-kuyga,70.02,135.6,10.38,94.0,100.0,6.62,RU,1603228942.0
cape coast,5.11,-1.25,77.95,86.0,70.0,12.01,GH,1603228942.0
pemba,-12.97,40.52,77.0,83.0,20.0,4.7,MZ,1603228942.0
shingu,33.73,135.98,59.22,76.0,36.0,8.16,JP,1603228686.0
sampit,-2.53,112.95,74.52,97.0,76.0,1.14,ID,1603228943.0
saint-pierre,-21.34,55.48,71.6,64.0,22.0,5.82,RE,1603228761.0
bereda,43.27,-7.54,55.99,100.0,100.0,5.01,ES,1603228943.0
vaitupu,,,,,,,,
roanoke rapids,36.46,-77.65,78.8,88.0,1.0,2.59,US,1603228944.0
avera,33.19,-82.53,77.0,61.0,1.0,8.05,US,1603228944.0
rawson,-43.3,-65.1,54.28,49.0,97.0,18.16,AR,1603228929.0
breves,-1.68,-50.48,83.03,68.0,100.0,6.06,BR,1603228944.0
blairmore,49.6,-114.44,44.6,33.0,40.0,4.7,CA,1603228945.0
saint-augustin,51.23,-58.65,45.3,90.0,100.0,3.44,CA,1603228945.0
bucerias,20.75,-105.33,89.01,74.0,40.0,9.17,MX,1603228945.0
race,46.45,15.68,51.01,76.0,76.0,5.82,SI,1603228945.0
merrill,45.18,-89.68,33.01,95.0,90.0,3.36,US,1603228946.0
hunza,,,,,,,,
tha muang,13.96,99.64,71.29,90.0,100.0,3.91,TH,1603228946.0
yinchuan,38.47,106.27,44.06,43.0,0.0,4.88,CN,1603228946.0
samusu,,,,,,,,
palana,59.12,159.97,32.72,99.0,100.0,3.62,RU,1603228947.0
monte azul,-15.15,-42.87,80.73,50.0,91.0,4.94,BR,1603228947.0
cabo san lucas,22.89,-109.91,93.2,46.0,5.0,4.7,MX,1603228947.0
morant bay,17.88,-76.41,84.99,83.0,40.0,20.8,JM,1603228948.0
bairiki,1.33,172.98,84.2,74.0,20.0,11.41,KI,1603228948.0
tessalit,20.2,1.01,85.89,14.0,0.0,10.58,ML,1603228948.0
naples,40.83,14.25,59.0,76.0,18.0,1.12,IT,1603228834.0
honiara,-9.43,159.95,75.2,94.0,40.0,4.7,SB,1603228949.0
port hedland,-20.32,118.57,69.8,94.0,85.0,8.05,AU,1603228949.0
ascona,46.15,8.77,52.0,100.0,75.0,1.12,CH,1603228949.0
inyonga,-6.72,32.07,73.65,52.0,47.0,3.98,TZ,1603228949.0
egvekinot,66.32,-179.17,34.14,100.0,100.0,7.36,RU,1603228950.0
parsabad,39.65,47.92,59.0,87.0,75.0,13.87,IR,1603228950.0
guadalajara,20.67,-103.33,88.0,26.0,40.0,6.93,MX,1603228950.0
chabahar,25.29,60.64,71.6,64.0,0.0,4.29,IR,1603228950.0
calvinia,-31.47,19.78,56.46,36.0,0.0,3.74,ZA,1603228951.0
eenhana,-17.47,16.33,86.0,13.0,10.0,8.05,NA,1603228951.0
esperance,-33.87,121.9,57.2,100.0,90.0,10.29,AU,1603228951.0
okhotsk,59.38,143.3,24.75,81.0,98.0,10.76,RU,1603228951.0
shushtar,32.05,48.86,66.45,43.0,0.0,1.28,IR,1603228952.0
sisimiut,66.94,-53.67,33.82,94.0,100.0,12.44,GL,1603228952.0
santa fe,-31.63,-60.7,63.0,76.0,100.0,10.0,AR,1603228860.0
tres arroyos,-38.37,-60.28,59.74,45.0,23.0,13.73,AR,1603228952.0
aranos,-24.13,19.12,66.94,25.0,0.0,20.89,NA,1603228953.0
roma,43.21,-75.46,51.8,87.0,90.0,3.36,US,1603228953.0
high level,58.52,-117.14,24.8,68.0,75.0,13.87,CA,1603228953.0
netivot,31.42,34.59,77.0,100.0,0.0,5.82,IL,1603228954.0
taguatinga,-12.39,-46.57,87.44,38.0,95.0,6.96,BR,1603228954.0
luang prabang,19.89,102.13,68.59,84.0,100.0,2.06,LA,1603228954.0
vidalia,32.22,-82.41,80.6,54.0,40.0,11.41,US,1603228954.0
fevralsk,,,,,,,,
quatre cocos,-20.21,57.76,75.2,78.0,20.0,11.41,MU,1603228955.0
saldanha,-33.01,17.94,53.6,71.0,0.0,2.24,ZA,1603228955.0
kourou,5.16,-52.65,84.2,70.0,99.0,9.17,GF,1603228955.0
nema,57.51,50.5,30.99,98.0,59.0,7.4,RU,1603228956.0
hualmay,-11.1,-77.61,67.55,69.0,10.0,8.9,PE,1603228681.0
lorengau,-2.02,147.27,82.29,67.0,96.0,1.19,PG,1603228956.0
rungata,,,,,,,,
macaboboni,,,,,,,,
kavaratti,10.57,72.64,81.21,75.0,100.0,10.2,IN,1603228957.0
husavik,66.04,-17.34,24.8,92.0,95.0,3.36,IS,1603228957.0
san luis,-33.3,-66.34,69.48,45.0,70.0,20.51,AR,1603228957.0
kailua,21.4,-157.74,86.0,55.0,75.0,9.17,US,1603228958.0
margate,51.38,1.39,59.0,86.0,100.0,3.0,GB,1603228958.0
vallenar,-28.57,-70.76,81.68,18.0,0.0,8.12,CL,1603228688.0
haapiti,-17.57,-149.87,84.2,70.0,20.0,13.87,PF,1603228959.0
roald,62.58,6.13,41.0,93.0,75.0,16.11,NO,1603228959.0
olafsvik,64.89,-23.71,42.44,86.0,100.0,15.28,IS,1603228959.0
cascais,38.7,-9.42,63.0,93.0,40.0,5.82,PT,1603228959.0
crib point,-38.35,145.2,55.0,95.0,100.0,2.68,AU,1603228960.0
auki,-8.77,160.7,81.0,80.0,100.0,5.08,SB,1603228960.0
george,-33.96,22.46,57.2,82.0,9.0,4.7,ZA,1603228960.0
vestmanna,62.16,-7.17,39.2,80.0,21.0,11.41,FO,1603228960.0
eldikan,,,,,,,,
bac lieu,9.29,105.72,77.72,90.0,100.0,8.68,VN,1603228961.0
aksarka,66.56,67.8,21.36,98.0,100.0,4.88,RU,1603228961.0
dali,25.7,100.18,56.3,90.0,99.0,4.18,CN,1603228961.0
khorixas,-20.37,14.97,61.05,34.0,0.0,3.62,NA,1603228962.0
forbes,-33.38,148.02,60.62,68.0,69.0,6.13,AU,1603228962.0
brookings,44.31,-96.8,34.0,100.0,90.0,6.93,US,1603228947.0
lufkin,31.34,-94.73,86.0,48.0,1.0,8.05,US,1603228962.0
saint-francois,46.42,3.91,62.6,59.0,100.0,21.92,FR,1603228963.0
pangkalanbuun,-2.68,111.62,75.25,96.0,68.0,1.48,ID,1603228963.0
vila,42.03,-8.16,54.0,94.0,100.0,11.99,PT,1603228963.0
khash,28.22,61.22,46.6,40.0,0.0,4.16,IR,1603228963.0
shelton,41.32,-73.09,68.0,88.0,1.0,5.82,US,1603228964.0
pedernales,18.04,-71.74,82.4,74.0,40.0,11.41,DO,1603228964.0
kyle of lochalsh,,,,,,,,
margherita,27.28,95.68,69.57,93.0,3.0,1.74,IN,1603228964.0
semey,50.41,80.23,41.22,58.0,4.0,11.61,KZ,1603228743.0
chuy,-33.7,-53.46,55.06,84.0,100.0,15.28,UY,1603228965.0
huescar,37.81,-2.54,64.99,38.0,89.0,5.08,ES,1603228965.0
nouadhibou,20.93,-17.03,78.8,47.0,2.0,17.22,MR,1603228965.0
samarai,-10.62,150.67,79.32,85.0,98.0,8.19,PG,1603228966.0
najran,17.49,44.13,66.2,24.0,0.0,1.48,SA,1603228966.0
dalhousie,32.53,75.98,52.36,43.0,0.0,6.76,IN,1603228966.0
kenai,60.55,-151.26,41.0,80.0,1.0,4.7,US,1603228966.0
martapura,-3.42,114.85,73.72,87.0,78.0,1.63,ID,1603228967.0
shitanjing,39.23,106.34,38.03,56.0,0.0,4.16,CN,1603228967.0
voh,-20.97,164.7,75.52,63.0,24.0,2.84,NC,1603228967.0
vardo,70.37,31.11,32.0,73.0,75.0,5.82,NO,1603228967.0
khuzdar,27.74,66.64,57.34,26.0,0.0,4.83,PK,1603228968.0
geraldton,-28.77,114.6,64.4,77.0,90.0,16.11,AU,1603228968.0
henties bay,-22.12,14.28,57.99,86.0,0.0,1.01,NA,1603228968.0
badou,7.58,0.6,74.93,87.0,100.0,1.5,TG,1603228968.0
avallon,47.48,3.9,60.01,68.0,100.0,1.01,FR,1603228969.0
mae sai,20.43,99.88,69.8,100.0,90.0,6.93,TH,1603228969.0
imbituba,-28.24,-48.67,77.0,78.0,20.0,4.7,BR,1603228969.0
taoudenni,22.68,-3.98,82.56,17.0,0.0,9.24,ML,1603228969.0
camopi,3.17,-52.32,88.99,45.0,25.0,5.57,GF,1603228970.0
ngukurr,,,,,,,,
markala,13.7,-6.07,86.61,21.0,0.0,4.03,ML,1603228970.0
louisbourg,,,,,,,,
mendahara,,,,,,,,
langxiang,46.95,128.88,44.89,83.0,100.0,5.26,CN,1603228971.0
xining,36.62,101.77,36.0,68.0,0.0,1.48,CN,1603228971.0
luganville,-15.53,167.17,77.0,94.0,90.0,9.06,VU,1603228971.0
mbacke,,,,,,,,
chokwe,-24.53,32.98,74.86,67.0,67.0,21.52,MZ,1603228972.0
abu samrah,35.3,37.18,66.49,45.0,0.0,4.34,SY,1603228972.0
bellinzona,46.19,9.02,52.0,100.0,75.0,1.12,CH,1603228957.0
gorno-chuyskiy,,,,,,,,
beyneu,45.32,55.2,45.39,65.0,0.0,11.07,KZ,1603228973.0
yuki,36.3,139.88,57.99,93.0,20.0,5.82,JP,1603228973.0
faya,18.39,42.45,60.8,19.0,0.0,6.93,SA,1603228974.0
la primavera,5.49,-70.41,89.26,62.0,79.0,3.27,CO,1603228974.0
severo-kurilsk,50.68,156.12,41.22,69.0,79.0,24.29,RU,1603228974.0
xiaoshi,41.3,124.12,57.2,58.0,100.0,6.71,CN,1603228974.0
sangar,63.92,127.47,16.21,94.0,100.0,8.86,RU,1603228975.0
petropavlovsk-kamchatskiy,53.05,158.65,24.8,85.0,0.0,6.71,RU,1603228944.0
suntar,62.14,117.63,16.86,97.0,82.0,3.89,RU,1603228975.0
camacha,33.08,-16.33,68.0,68.0,40.0,18.34,PT,1603228975.0
pisco,-13.7,-76.22,68.0,72.0,3.0,8.05,PE,1603228975.0
dauphin,51.15,-100.05,33.8,69.0,90.0,9.17,CA,1603228976.0
irtyshskiy,58.33,68.13,42.44,90.0,99.0,10.11,RU,1603228976.0
miramar,25.99,-80.23,80.6,88.0,75.0,6.93,US,1603228976.0
juifang,,,,,,,,
williams lake,52.14,-122.14,35.6,100.0,75.0,3.36,CA,1603228977.0
arcata,40.87,-124.08,73.99,56.0,1.0,12.75,US,1603228977.0
launceston,-41.45,147.17,52.0,87.0,100.0,6.93,AU,1603228977.0
ende,-8.84,121.66,77.45,73.0,100.0,1.1,ID,1603228977.0
codrington,-38.27,141.97,47.61,88.0,28.0,2.91,AU,1603228978.0
ippy,6.27,21.22,70.0,97.0,100.0,2.89,CF,1603228978.0
waddan,29.16,16.14,65.57,63.0,0.0,15.21,LY,1603228978.0
antofagasta,-23.65,-70.4,60.8,77.0,40.0,13.87,CL,1603228740.0
morondava,-20.28,44.28,78.1,59.0,0.0,16.6,MG,1603228979.0
tarudant,,,,,,,,
liverpool,53.41,-2.98,57.0,87.0,20.0,12.75,GB,1603228979.0
lasa,46.62,10.7,50.0,93.0,75.0,5.82,IT,1603228979.0
obihiro,42.92,143.2,37.94,78.0,0.0,2.48,JP,1603228980.0
ganzhou,28.82,115.43,58.8,86.0,100.0,3.89,CN,1603228980.0
kefamenanu,-9.45,124.48,71.22,73.0,92.0,0.69,ID,1603228980.0
baracoa,20.35,-74.5,81.59,78.0,80.0,5.61,CU,1603228980.0
amahai,-3.33,128.92,82.0,89.0,89.0,1.16,ID,1603228981.0
broome,42.25,-75.83,55.0,93.0,90.0,6.93,US,1603228981.0
celestun,20.87,-90.4,83.26,74.0,3.0,14.41,MX,1603228981.0
bacuit,,,,,,,,
wahiawa,21.5,-158.02,84.2,94.0,90.0,8.05,US,1603228982.0
makakilo city,21.35,-158.09,84.2,78.0,40.0,10.29,US,1603228982.0
ikongo,-21.88,47.43,66.76,85.0,55.0,2.28,MG,1603228982.0
kalmunai,7.42,81.82,78.94,79.0,33.0,5.17,LK,1603228983.0
sapao,,,,,,,,
komsomolskiy,40.43,71.72,59.29,32.0,0.0,3.15,UZ,1603228983.0
luderitz,-26.65,15.16,66.6,41.0,0.0,26.62,NA,1603228984.0
gawler,-34.6,138.73,61.0,70.0,76.0,4.79,AU,1603228984.0
barabai,-2.58,115.38,74.66,85.0,98.0,0.63,ID,1603228984.0
yulara,-25.24,130.99,66.2,72.0,0.0,8.05,AU,1603228985.0
moerai,-22.43,-151.33,77.25,82.0,0.0,9.37,PF,1603228985.0
cerrito,6.84,-72.69,75.2,78.0,40.0,8.05,CO,1603228985.0
san jose de las lajas,22.96,-82.15,77.0,94.0,75.0,12.75,CU,1603228985.0
areia branca,-4.96,-37.14,81.1,68.0,8.0,24.32,BR,1603228986.0
san pablo,14.07,121.33,78.8,88.0,90.0,3.36,PH,1603228986.0
coruripe,-10.13,-36.18,75.76,76.0,1.0,10.74,BR,1603228986.0
tabiauea,,,,,,,,
ngunguru,-35.62,174.5,64.0,88.0,100.0,3.0,NZ,1603228987.0
shache,38.42,77.24,39.92,69.0,0.0,0.18,CN,1603228987.0
warqla,,,,,,,,
hinton,53.4,-117.59,38.98,68.0,43.0,9.15,CA,1603228988.0
almaznyy,48.04,40.05,42.8,67.0,70.0,6.71,RU,1603228988.0
dong xoai,11.53,106.92,73.0,96.0,100.0,4.23,VN,1603228988.0
tlahualilo,,,,,,,,
gemena,3.25,19.77,71.31,91.0,55.0,0.85,CD,1603228989.0
bilma,18.69,12.92,81.36,15.0,0.0,4.79,NE,1603228989.0
mnogovershinnyy,53.94,139.92,28.72,86.0,81.0,6.8,RU,1603228989.0
buraydah,26.33,43.98,66.2,37.0,0.0,4.7,SA,1603228702.0
dicabisagan,17.08,122.42,79.75,84.0,100.0,12.97,PH,1603228990.0
shirokiy,49.76,129.52,42.75,77.0,100.0,15.61,RU,1603228990.0
porto santo,33.07,-16.34,68.0,68.0,40.0,18.34,PT,1603228990.0
chara,56.91,118.26,10.36,85.0,76.0,3.47,RU,1603228991.0
maroantsetra,-15.43,49.73,73.76,85.0,87.0,9.71,MG,1603228991.0
paragominas,-2.97,-47.48,81.82,65.0,100.0,2.3,BR,1603228710.0
saryg-sep,51.5,95.6,25.97,96.0,96.0,1.79,RU,1603228991.0
salalah,17.02,54.09,80.6,42.0,70.0,4.7,OM,1603228870.0
turayf,31.67,38.66,62.6,27.0,0.0,8.05,SA,1603228864.0
iquitos,-3.75,-73.25,89.6,62.0,40.0,4.7,PE,1603228992.0
khasan,42.43,130.64,53.37,84.0,100.0,5.12,RU,1603228992.0
vera cruz,-12.63,-41.03,79.63,52.0,37.0,5.53,BR,1603228993.0
abnub,27.27,31.15,78.8,47.0,0.0,4.7,EG,1603228993.0
dinsor,,,,,,,,
richards bay,-28.78,32.04,68.47,72.0,99.0,15.17,ZA,1603228993.0
djibo,14.1,-1.63,94.03,21.0,62.0,6.4,BF,1603228994.0
syasstroy,60.14,32.57,36.57,82.0,91.0,9.37,RU,1603228994.0
ballina,-28.87,153.57,61.0,87.0,40.0,7.02,AU,1603228994.0
rodrigues alves,-7.74,-72.65,92.64,43.0,81.0,3.69,BR,1603228994.0
cherdakly,54.36,48.84,41.0,60.0,95.0,8.95,RU,1603228995.0
cradock,-32.16,25.62,50.79,62.0,0.0,6.33,ZA,1603228995.0
ipixuna,-1.76,-48.8,75.2,94.0,75.0,8.05,BR,1603228995.0
tocopilla,-22.09,-70.2,64.98,52.0,32.0,3.76,CL,1603228921.0
sao goncalo do amarante,-3.61,-38.97,80.01,72.0,51.0,20.0,BR,1603228996.0
pyaozerskiy,65.83,31.17,32.25,95.0,94.0,4.16,RU,1603228996.0
olden,61.84,6.81,39.2,93.0,75.0,9.17,NO,1603228996.0
polunochnoye,60.87,60.42,27.59,98.0,30.0,4.94,RU,1603228996.0
delta del tigre,-34.76,-56.39,55.99,54.0,100.0,17.22,UY,1603228997.0
mazatlan,23.22,-106.42,91.4,63.0,20.0,12.75,MX,1603228997.0
porangatu,-13.44,-49.15,84.9,45.0,95.0,5.91,BR,1603229007.0
haines junction,60.75,-137.51,29.44,81.0,100.0,3.67,CA,1603229007.0
bubaque,11.28,-15.83,82.56,80.0,5.0,13.98,GW,1603229008.0
el campo,29.2,-96.27,87.8,40.0,40.0,6.93,US,1603229008.0
ossora,59.24,163.07,35.47,87.0,100.0,10.49,RU,1603229008.0
zhanaozen,43.3,52.8,47.79,72.0,98.0,11.1,KZ,1603229009.0
andenes,69.31,16.12,28.4,79.0,5.0,4.7,NO,1603229009.0
dmitriyevka,54.75,55.33,33.8,86.0,75.0,8.95,RU,1603229009.0
jizan,17.33,42.67,84.2,70.0,0.0,3.36,SA,1603229009.0
karakol,42.49,78.39,43.61,40.0,0.0,2.8,KG,1603229010.0
barsovo,61.17,73.17,35.6,100.0,90.0,2.24,RU,1603229010.0
